# 
# Header Description:
# 
# Version: v3.0.6.4 Platform: 13 Manufacturer: samsung Model: SM-A715F
# 
# Raw,utcTimeMillis,TimeNanos,LeapSecond,TimeUncertaintyNanos,FullBiasNanos,BiasNanos,BiasUncertaintyNanos,DriftNanosPerSecond,DriftUncertaintyNanosPerSecond,HardwareClockDiscontinuityCount,Svid,TimeOffsetNanos,State,ReceivedSvTimeNanos,ReceivedSvTimeUncertaintyNanos,Cn0DbHz,PseudorangeRateMetersPerSecond,PseudorangeRateUncertaintyMetersPerSecond,AccumulatedDeltaRangeState,AccumulatedDeltaRangeMeters,AccumulatedDeltaRangeUncertaintyMeters,CarrierFrequencyHz,CarrierCycles,CarrierPhase,CarrierPhaseUncertainty,MultipathIndicator,SnrInDb,ConstellationType,AgcDb,BasebandCn0DbHz,FullInterSignalBiasNanos,FullInterSignalBiasUncertaintyNanos,SatelliteInterSignalBiasNanos,SatelliteInterSignalBiasUncertaintyNanos,CodeType,ChipsetElapsedRealtimeNanos
# 
# UncalAccel,utcTimeMillis,elapsedRealtimeNanos,UncalAccelXMps2,UncalAccelYMps2,UncalAccelZMps2,BiasXMps2,BiasYMps2,BiasZMps2
# 
# Accel,utcTimeMillis,elapsedRealtimeNanos,AccelXMps2,AccelYMps2,AccelZMps2
# 
# UncalGyro,utcTimeMillis,elapsedRealtimeNanos,UncalGyroXRadPerSec,UncalGyroYRadPerSec,UncalGyroZRadPerSec,DriftXRadPerSec,DriftYRadPerSec,DriftZRadPerSec
# 
# Gyro,utcTimeMillis,elapsedRealtimeNanos,GyroXRadPerSec,GyroYRadPerSec,GyroZRadPerSec
# 
# UncalMag,utcTimeMillis,elapsedRealtimeNanos,UncalMagXMicroT,UncalMagYMicroT,UncalMagZMicroT,BiasXMicroT,BiasYMicroT,BiasZMicroT
# 
# Mag,utcTimeMillis,elapsedRealtimeNanos,MagXMicroT,MagYMicroT,MagZMicroT
# 
# OrientationDeg,utcTimeMillis,elapsedRealtimeNanos,yawDeg,rollDeg,pitchDeg
# 
# Fix,Provider,LatitudeDegrees,LongitudeDegrees,AltitudeMeters,SpeedMps,AccuracyMeters,BearingDegrees,UnixTimeMillis,SpeedAccuracyMps,BearingAccuracyDegrees,elapsedRealtimeNanos,VerticalAccuracyMeters,MockLocation,NumberOfUsedSignals,VerticalSpeedAccuracyMps,SolutionType
# 
# Nav,Svid,Type,Status,MessageId,Sub-messageId,Data(Bytes)
# 
# Status,UnixTimeMillis,SignalCount,SignalIndex,ConstellationType,Svid,CarrierFrequencyHz,Cn0DbHz,AzimuthDegrees,ElevationDegrees,UsedInFix,HasAlmanacData,HasEphemerisData,BasebandCn0DbHz
# 
# Agc,utcTimeMillis,TimeNanos,LeapSecond,TimeUncertaintyNanos,FullBiasNanos,BiasNanos,BiasUncertaintyNanos,DriftNanosPerSecond,DriftUncertaintyNanosPerSecond,HardwareClockDiscontinuityCount,AgcDb,CarrierFrequencyHz,ConstellationType
# 
Fix,FLP,36.5452447000,29.1228755000,31.299999237060547,0.5646383,3.9,281.0265,1712577377461,0.85982555,45.0,13850127253871,3.2268884,0,,,
Status,,27,0,1,5,1575420030,43.30,49.0,26.0,1,1,1,38.3
Status,,27,1,1,16,1575420030,37.70,316.0,18.0,1,1,1,32.7
Status,,27,2,1,18,1575420030,43.10,291.0,79.0,1,1,1,38.1
Status,,27,3,1,23,1575420030,46.20,168.0,30.0,1,1,1,41.2
Status,,27,4,1,25,1575420030,47.10,150.0,25.0,1,1,1,42.1
Status,,27,5,1,26,1575420030,42.20,300.0,50.0,1,1,1,37.2
Status,,27,6,1,28,1575420030,44.40,226.0,17.0,1,1,1,39.4
Status,,27,7,1,29,1575420030,41.10,63.0,49.0,1,1,1,36.1
Status,,27,8,1,31,1575420030,42.60,254.0,25.0,1,1,1,37.6
Status,,27,9,3,10,1602000000,40.30,191.0,42.0,0,1,0,35.3
Status,,27,10,3,11,1602000000,40.70,291.0,57.0,1,1,1,35.7
Status,,27,11,3,20,1602000000,32.70,29.0,38.0,1,1,0,27.7
Status,,27,12,3,21,1602000000,38.90,298.0,51.0,1,1,1,33.9
Status,,27,13,3,5,1602000000,0.00,82.0,17.0,0,1,0,0.0
Status,,27,14,5,5,1561097980,45.00,135.0,37.0,1,1,0,40.0
Status,,27,15,5,8,1561097980,42.30,39.0,34.0,1,1,1,37.3
Status,,27,16,5,13,1561097980,38.10,50.0,46.0,1,1,1,33.1
Status,,27,17,5,29,1561097980,43.50,282.0,42.0,1,1,1,38.5
Status,,27,18,5,30,1561097980,42.60,28.0,61.0,1,1,1,37.6
Status,,27,19,5,2,1561097980,0.00,111.0,19.0,0,1,0,0.0
Status,,27,20,5,27,1561097980,0.00,66.0,17.0,0,1,1,0.0
Status,,27,21,6,2,1575420030,45.70,277.0,75.0,1,1,0,40.7
Status,,27,22,6,11,1575420030,36.20,43.0,30.0,1,1,1,31.2
Status,,27,23,6,25,1575420030,49.40,151.0,43.0,1,1,0,44.4
Status,,27,24,6,30,1575420030,39.30,314.0,24.0,1,1,0,34.3
Status,,27,25,6,34,1575420030,46.00,239.0,39.0,1,1,0,41.0
Status,,27,26,6,36,1575420030,40.30,351.0,78.0,1,1,0,35.3
Raw,1712577377437,14789802000000,18,,-1396597805635252152,-0.7111530303955078,18.052072846330702,-0.7298806662690125,10.721231118792575,953,10,0.0,49359,53777367859714,12,37.3,643.457763671875,0.23440000414848328,16,0.0,0.0,1598062460,,,,0,,3,0.58,34.3,,,,,,
Raw,1712577377437,14789802000000,18,,-1396597805635252152,-0.7111530303955078,18.052072846330702,-0.7298806662690125,10.721231118792575,953,11,0.0,49359,53777370947695,12,37.7,-128.90272521972656,0.23890000581741333,16,0.0,0.0,1602000000,,,,0,,3,0.58,34.7,,,,,,
Raw,1712577377437,14789802000000,18,,-1396597805635252152,-0.7111530303955078,18.052072846330702,-0.7298806662690125,10.721231118792575,953,20,0.0,49359,53777367032675,27,29.7,446.6054382324219,0.8769999742507935,16,0.0,0.0,1603124990,,,,0,,3,0.58,26.7,,,,,,
Raw,1712577377437,14789802000000,18,,-1396597805635252152,-0.7111530303955078,18.052072846330702,-0.7298806662690125,10.721231118792575,953,21,0.0,49359,53777369766164,14,35.9,-119.27930450439453,0.23929999768733978,16,0.0,0.0,1604249980,,,,0,,3,0.58,32.9,,,,,,
Raw,1712577377437,14789802000000,18,,-1396597805635252152,-0.7111530303955078,18.052072846330702,-0.7298806662690125,10.721231118792575,953,5,0.0,81935,129395360530107,9,40.3,396.0540771484375,0.02160000056028366,16,0.0,0.0,1575420030,,,,0,,1,0.08,37.3,,,,,,
Raw,1712577377437,14789802000000,18,,-1396597805635252152,-0.7111530303955078,18.052072846330702,-0.7298806662690125,10.721231118792575,953,16,0.0,81935,129395358557232,16,34.7,-622.640625,0.053700003772974014,16,0.0,0.0,1575420030,,,,0,,1,0.08,31.700000000000003,,,,,,
Raw,1712577377437,14789802000000,18,,-1396597805635252152,-0.7111530303955078,18.052072846330702,-0.7298806662690125,10.721231118792575,953,18,0.0,81935,129395368808643,9,40.1,-29.547836303710938,0.03360000252723694,16,0.0,0.0,1575420030,,,,0,,1,0.08,37.1,,,,,,
Raw,1712577377437,14789802000000,18,,-1396597805635252152,-0.7111530303955078,18.052072846330702,-0.7298806662690125,10.721231118792575,953,23,0.0,81935,129395361510477,6,43.2,-625.2529907226562,0.02160000056028366,16,0.0,0.0,1575420030,,,,0,,1,0.08,40.2,,,,,,
Raw,1712577377437,14789802000000,18,,-1396597805635252152,-0.7111530303955078,18.052072846330702,-0.7298806662690125,10.721231118792575,953,25,0.0,81935,129395359710856,6,44.1,673.849609375,0.01810000091791153,16,0.0,0.0,1575420030,,,,0,,1,0.08,41.1,,,,,,
Raw,1712577377437,14789802000000,18,,-1396597805635252152,-0.7111530303955078,18.052072846330702,-0.7298806662690125,10.721231118792575,953,26,0.0,81935,129395366381755,10,39.2,-294.1880187988281,0.03110000118613243,16,0.0,0.0,1575420030,,,,0,,1,0.08,36.2,,,,,,
Raw,1712577377437,14789802000000,18,,-1396597805635252152,-0.7111530303955078,18.052072846330702,-0.7298806662690125,10.721231118792575,953,28,0.0,81935,129395357444122,8,41.4,535.8707275390625,0.04670000448822975,16,0.0,0.0,1575420030,,,,0,,1,0.08,38.4,,,,,,
Raw,1712577377437,14789802000000,18,,-1396597805635252152,-0.7111530303955078,18.052072846330702,-0.7298806662690125,10.721231118792575,953,29,0.0,81935,129395365560497,11,38.1,253.56431579589844,0.030400000512599945,16,0.0,0.0,1575420030,,,,0,,1,0.08,35.1,,,,,,
Raw,1712577377437,14789802000000,18,,-1396597805635252152,-0.7111530303955078,18.052072846330702,-0.7298806662690125,10.721231118792575,953,31,0.0,81935,129395359211094,10,39.6,368.9613342285156,0.050599999725818634,16,0.0,0.0,1575420030,,,,0,,1,0.08,36.6,,,,,,
Raw,1712577377437,14789802000000,18,,-1396597805635252152,-0.7111530303955078,18.052072846330702,-0.7298806662690125,10.721231118792575,953,5,0.0,16399,129381309681390,10,39.0,-7.9984450340271,5.108099937438965,16,0.0,0.0,1561097980,,,,0,,5,0.99,33.0,,,,,,
Raw,1712577377437,14789802000000,18,,-1396597805635252152,-0.7111530303955078,18.052072846330702,-0.7298806662690125,10.721231118792575,953,8,0.0,16399,129381309779526,13,36.3,140.13209533691406,0.03869999945163727,16,0.0,0.0,1561097980,,,,0,,5,0.99,30.299999999999997,,,,,,
Raw,1712577377437,14789802000000,18,,-1396597805635252152,-0.7111530303955078,18.052072846330702,-0.7298806662690125,10.721231118792575,953,13,0.0,16399,129381312576063,19,32.1,68.10557556152344,0.059300005435943604,16,0.0,0.0,1561097980,,,,0,,5,0.99,26.1,,,,,,
Raw,1712577377437,14789802000000,18,,-1396597805635252152,-0.7111530303955078,18.052072846330702,-0.7298806662690125,10.721231118792575,953,29,0.0,16399,129381360354469,12,37.5,-279.59954833984375,0.023900000378489494,16,0.0,0.0,1561097980,,,,0,,5,0.99,31.5,,,,,,
Raw,1712577377437,14789802000000,18,,-1396597805635252152,-0.7111530303955078,18.052072846330702,-0.7298806662690125,10.721231118792575,953,30,0.0,16399,129381363353123,13,36.6,166.35385131835938,0.02970000170171261,16,0.0,0.0,1561097980,,,,0,,5,0.99,30.6,,,,,,
Raw,1712577377437,14789802000000,18,,-1396597805635252152,-0.7111530303955078,18.052072846330702,-0.7298806662690125,10.721231118792575,953,2,0.0,89103,129395359426152,10,39.7,-43.76723861694336,0.050599999725818634,16,0.0,0.0,1575420030,,,,0,,6,0.11,33.7,,,,,,
Raw,1712577377437,14789802000000,18,,-1396597805635252152,-0.7111530303955078,18.052072846330702,-0.7298806662690125,10.721231118792575,953,11,0.0,89103,129395354207475,24,30.2,445.6106872558594,0.5234999656677246,16,0.0,0.0,1575420030,,,,0,,6,0.11,24.2,,,,,,
Raw,1712577377437,14789802000000,18,,-1396597805635252152,-0.7111530303955078,18.052072846330702,-0.7298806662690125,10.721231118792575,953,25,0.0,89103,129395354410823,6,43.4,430.66485595703125,0.0471000038087368,16,0.0,0.0,1575420030,,,,0,,6,0.11,37.4,,,,,,
Raw,1712577377437,14789802000000,18,,-1396597805635252152,-0.7111530303955078,18.052072846330702,-0.7298806662690125,10.721231118792575,953,30,0.0,89103,129395349313519,17,33.3,-471.6520690917969,0.05880000442266464,16,0.0,0.0,1575420030,,,,0,,6,0.11,27.299999999999997,,,,,,
Raw,1712577377437,14789802000000,18,,-1396597805635252152,-0.7111530303955078,18.052072846330702,-0.7298806662690125,10.721231118792575,953,34,0.0,89103,129395353328405,9,40.0,-346.4676208496094,0.0471000038087368,16,0.0,0.0,1575420030,,,,0,,6,0.11,34.0,,,,,,
Raw,1712577377437,14789802000000,18,,-1396597805635252152,-0.7111530303955078,18.052072846330702,-0.7298806662690125,10.721231118792575,953,36,0.0,89103,129395359232509,16,34.3,93.58353424072266,0.0552000030875206,16,0.0,0.0,1575420030,,,,0,,6,0.11,28.299999999999997,,,,,,
Fix,GPS,36.5452452000,29.1228736700,24.611572265625,0.0,3.7900925,,1712577378000,0.840595,,13851121886891,3.0,0,,,
Fix,FLP,36.5452452000,29.1228733000,31.299999237060547,0.38905907,3.9,282.42935,1712577378455,0.840595,45.0,13851121886891,2.116082,0,,,
Status,1712577378000,27,0,1,5,1575420030,42.30,49.0,26.0,1,1,1,37.3
Status,1712577378000,27,1,1,16,1575420030,36.70,316.0,18.0,1,1,1,31.7
Status,1712577378000,27,2,1,18,1575420030,42.90,291.0,79.0,1,1,1,37.9
Status,1712577378000,27,3,1,23,1575420030,48.50,168.0,30.0,1,1,1,43.5
Status,1712577378000,27,4,1,25,1575420030,46.50,150.0,25.0,1,1,1,41.5
Status,1712577378000,27,5,1,26,1575420030,40.30,300.0,50.0,1,1,1,35.3
Status,1712577378000,27,6,1,28,1575420030,43.60,226.0,17.0,1,1,1,38.6
Status,1712577378000,27,7,1,29,1575420030,43.30,63.0,49.0,1,1,1,38.3
Status,1712577378000,27,8,1,31,1575420030,42.80,254.0,25.0,1,1,1,37.8
Status,1712577378000,27,9,3,10,1602000000,42.50,191.0,42.0,0,1,0,37.5
Status,1712577378000,27,10,3,11,1602000000,41.30,291.0,57.0,1,1,1,36.3
Status,1712577378000,27,11,3,20,1602000000,29.00,29.0,38.0,1,1,0,24.0
Status,1712577378000,27,12,3,21,1602000000,37.00,298.0,51.0,1,1,1,32.0
Status,1712577378000,27,13,3,5,1602000000,0.00,82.0,17.0,0,1,0,0.0
Status,1712577378000,27,14,5,5,1561097980,42.00,135.0,37.0,1,1,0,37.0
Status,1712577378000,27,15,5,8,1561097980,42.40,39.0,34.0,1,1,1,37.4
Status,1712577378000,27,16,5,13,1561097980,41.60,50.0,46.0,1,1,1,36.6
Status,1712577378000,27,17,5,29,1561097980,42.80,282.0,42.0,1,1,1,37.8
Status,1712577378000,27,18,5,30,1561097980,45.80,28.0,61.0,1,1,1,40.8
Status,1712577378000,27,19,5,2,1561097980,0.00,111.0,19.0,0,1,0,0.0
Status,1712577378000,27,20,5,27,1561097980,0.00,66.0,17.0,0,1,1,0.0
Status,1712577378000,27,21,6,2,1575420030,44.60,277.0,75.0,1,1,0,39.6
Status,1712577378000,27,22,6,11,1575420030,36.10,43.0,30.0,1,1,1,31.1
Status,1712577378000,27,23,6,25,1575420030,47.40,151.0,43.0,1,1,0,42.4
Status,1712577378000,27,24,6,30,1575420030,34.60,314.0,24.0,1,1,0,29.6
Status,1712577378000,27,25,6,34,1575420030,45.20,239.0,39.0,1,1,0,40.2
Status,1712577378000,27,26,6,36,1575420030,41.90,351.0,78.0,1,1,0,36.9
Raw,1712577378437,14790802000000,18,,-1396597805635252152,-0.7409553527832031,17.701531760394573,-0.3257168359596126,9.56709233822928,953,10,0.0,49359,53778367857555,10,39.5,642.9662475585938,0.23260000348091125,16,0.0,0.0,1598062460,,,,0,,3,0.56,36.5,,,,,,
Raw,1712577378437,14790802000000,18,,-1396597805635252152,-0.7409553527832031,17.701531760394573,-0.3257168359596126,9.56709233822928,953,11,0.0,49359,53778370948079,11,38.3,-129.1937255859375,0.2379000037908554,16,0.0,0.0,1602000000,,,,0,,3,0.56,35.3,,,,,,
Raw,1712577378437,14790802000000,18,,-1396597805635252152,-0.7409553527832031,17.701531760394573,-0.3257168359596126,9.56709233822928,953,20,0.0,49359,53778367031362,40,26.0,445.0907287597656,1.056999921798706,16,0.0,0.0,1603124990,,,,0,,3,0.56,23.0,,,,,,
Raw,1712577378437,14790802000000,18,,-1396597805635252152,-0.7409553527832031,17.701531760394573,-0.3257168359596126,9.56709233822928,953,21,0.0,49359,53778369766540,16,34.0,-119.88993072509766,0.2401999980211258,16,0.0,0.0,1604249980,,,,0,,3,0.56,31.0,,,,,,
Raw,1712577378437,14790802000000,18,,-1396597805635252152,-0.7409553527832031,17.701531760394573,-0.3257168359596126,9.56709233822928,953,5,0.0,81935,129396360528823,10,39.3,395.4453430175781,0.022099999710917473,16,0.0,0.0,1575420030,,,,0,,1,0.08,36.3,,,,,,
Raw,1712577378437,14790802000000,18,,-1396597805635252152,-0.7409553527832031,17.701531760394573,-0.3257168359596126,9.56709233822928,953,16,0.0,81935,129396358559291,17,33.7,-623.6115112304688,0.06030000001192093,16,0.0,0.0,1575420030,,,,0,,1,0.08,30.700000000000003,,,,,,
Raw,1712577378437,14790802000000,18,,-1396597805635252152,-0.7409553527832031,17.701531760394573,-0.3257168359596126,9.56709233822928,953,18,0.0,81935,129396368808759,10,39.9,-30.139822006225586,0.0341000035405159,16,0.0,0.0,1575420030,,,,0,,1,0.08,36.9,,,,,,
Raw,1712577378437,14790802000000,18,,-1396597805635252152,-0.7409553527832031,17.701531760394573,-0.3257168359596126,9.56709233822928,953,23,0.0,81935,129396361512573,5,45.5,-625.7772216796875,0.020900001749396324,16,0.0,0.0,1575420030,,,,0,,1,0.08,42.5,,,,,,
Raw,1712577378437,14790802000000,18,,-1396597805635252152,-0.7409553527832031,17.701531760394573,-0.3257168359596126,9.56709233822928,953,25,0.0,81935,129396359708627,6,43.5,673.3248901367188,0.01860000006854534,16,0.0,0.0,1575420030,,,,0,,1,0.08,40.5,,,,,,
Raw,1712577378437,14790802000000,18,,-1396597805635252152,-0.7409553527832031,17.701531760394573,-0.3257168359596126,9.56709233822928,953,26,0.0,81935,129396366382732,12,37.3,-294.7406921386719,0.03290000185370445,16,0.0,0.0,1575420030,,,,0,,1,0.08,34.3,,,,,,
Raw,1712577378437,14790802000000,18,,-1396597805635252152,-0.7409553527832031,17.701531760394573,-0.3257168359596126,9.56709233822928,953,28,0.0,81935,129396357442344,9,40.6,535.2123413085938,0.0471000038087368,16,0.0,0.0,1575420030,,,,0,,1,0.08,37.6,,,,,,
Raw,1712577378437,14790802000000,18,,-1396597805635252152,-0.7409553527832031,17.701531760394573,-0.3257168359596126,9.56709233822928,953,29,0.0,81935,129396365559706,9,40.3,252.99069213867188,0.029100000858306885,16,0.0,0.0,1575420030,,,,0,,1,0.08,37.3,,,,,,
Raw,1712577378437,14790802000000,18,,-1396597805635252152,-0.7409553527832031,17.701531760394573,-0.3257168359596126,9.56709233822928,953,31,0.0,81935,129396359209814,10,39.8,368.3938293457031,0.050599999725818634,16,0.0,0.0,1575420030,,,,0,,1,0.08,36.8,,,,,,
Raw,1712577378437,14790802000000,18,,-1396597805635252152,-0.7409553527832031,17.701531760394573,-0.3257168359596126,9.56709233822928,953,5,0.0,16399,129382309681416,13,36.0,-7.9984450340271,5.928799629211426,16,0.0,0.0,1561097980,,,,0,,5,0.85,30.0,,,,,,
Raw,1712577378437,14790802000000,18,,-1396597805635252152,-0.7409553527832031,17.701531760394573,-0.3257168359596126,9.56709233822928,953,8,0.0,16399,129382309779057,13,36.4,139.35324096679688,0.03869999945163727,16,0.0,0.0,1561097980,,,,0,,5,0.85,30.4,,,,,,
Raw,1712577378437,14790802000000,18,,-1396597805635252152,-0.7409553527832031,17.701531760394573,-0.3257168359596126,9.56709233822928,953,13,0.0,16399,129382312575812,14,35.6,67.48951721191406,0.043800003826618195,16,0.0,0.0,1561097980,,,,0,,5,0.85,29.6,,,,,,
Raw,1712577378437,14790802000000,18,,-1396597805635252152,-0.7409553527832031,17.701531760394573,-0.3257168359596126,9.56709233822928,953,29,0.0,16399,129382360355386,13,36.8,-280.36279296875,0.025200000032782555,16,0.0,0.0,1561097980,,,,0,,5,0.85,30.799999999999997,,,,,,
Raw,1712577378437,14790802000000,18,,-1396597805635252152,-0.7409553527832031,17.701531760394573,-0.3257168359596126,9.56709233822928,953,30,0.0,16399,129382363352570,10,39.8,165.74969482421875,0.026600001379847527,16,0.0,0.0,1561097980,,,,0,,5,0.85,33.8,,,,,,
Raw,1712577378437,14790802000000,18,,-1396597805635252152,-0.7409553527832031,17.701531760394573,-0.3257168359596126,9.56709233822928,953,2,0.0,89103,129396359426296,11,38.6,-44.21797180175781,0.05140000209212303,16,0.0,0.0,1575420030,,,,0,,6,0.06,32.6,,,,,,
Raw,1712577378437,14790802000000,18,,-1396597805635252152,-0.7409553527832031,17.701531760394573,-0.3257168359596126,9.56709233822928,953,11,0.0,89103,129396354205998,24,30.1,444.05029296875,0.5234999656677246,16,0.0,0.0,1575420030,,,,0,,6,0.06,24.1,,,,,,
Raw,1712577378437,14790802000000,18,,-1396597805635252152,-0.7409553527832031,17.701531760394573,-0.3257168359596126,9.56709233822928,953,25,0.0,89103,129396354409392,8,41.4,430.2399597167969,0.04820000380277634,16,0.0,0.0,1575420030,,,,0,,6,0.06,35.4,,,,,,
Raw,1712577378437,14790802000000,18,,-1396597805635252152,-0.7409553527832031,17.701531760394573,-0.3257168359596126,9.56709233822928,953,30,0.0,89103,129396349315096,31,28.6,-472.032958984375,0.6019999980926514,16,0.0,0.0,1575420030,,,,0,,6,0.06,22.6,,,,,,
Raw,1712577378437,14790802000000,18,,-1396597805635252152,-0.7409553527832031,17.701531760394573,-0.3257168359596126,9.56709233822928,953,34,0.0,89103,129396353329575,10,39.2,-347.001220703125,0.047600001096725464,16,0.0,0.0,1575420030,,,,0,,6,0.06,33.2,,,,,,
Raw,1712577378437,14790802000000,18,,-1396597805635252152,-0.7409553527832031,17.701531760394573,-0.3257168359596126,9.56709233822928,953,36,0.0,89103,129396359232202,14,35.9,93.10318756103516,0.05430000275373459,16,0.0,0.0,1575420030,,,,0,,6,0.06,29.9,,,,,,
Fix,GPS,36.5452474700,29.1228731300,24.22711181640625,0.25,3.7900925,344.3,1712577379000,0.840595,84.67747,13852131315328,3.0,0,,,
Fix,FLP,36.5452474000,29.1228729000,31.299999237060547,0.24961452,3.9,343.92328,1712577379465,0.840595,84.67747,13852131315328,2.126176,0,,,
Status,1712577379000,27,0,1,5,1575420030,37.00,49.0,26.0,1,1,1,32.0
Status,1712577379000,27,1,1,16,1575420030,41.20,316.0,18.0,1,1,1,36.2
Status,1712577379000,27,2,1,18,1575420030,45.90,291.0,79.0,1,1,1,40.9
Status,1712577379000,27,3,1,23,1575420030,47.60,168.0,30.0,1,1,1,42.6
Status,1712577379000,27,4,1,25,1575420030,40.70,150.0,25.0,1,1,1,35.7
Status,1712577379000,27,5,1,26,1575420030,41.80,300.0,50.0,1,1,1,36.8
Status,1712577379000,27,6,1,28,1575420030,42.60,226.0,17.0,1,1,1,37.6
Status,1712577379000,27,7,1,29,1575420030,44.40,63.0,49.0,1,1,1,39.4
Status,1712577379000,27,8,1,31,1575420030,46.00,254.0,25.0,1,1,1,41.0
Status,1712577379000,27,9,3,10,1602000000,45.40,191.0,42.0,0,1,0,40.4
Status,1712577379000,27,10,3,11,1602000000,43.90,291.0,57.0,1,1,1,38.9
Status,1712577379000,27,11,3,20,1602000000,26.20,29.0,38.0,1,1,0,21.2
Status,1712577379000,27,12,3,21,1602000000,40.10,298.0,51.0,1,1,1,35.1
Status,1712577379000,27,13,3,5,1602000000,0.00,82.0,17.0,0,1,0,0.0
Status,1712577379000,27,14,5,5,1561097980,42.00,135.0,37.0,1,1,0,37.0
Status,1712577379000,27,15,5,8,1561097980,37.20,39.0,34.0,1,1,1,32.2
Status,1712577379000,27,16,5,13,1561097980,41.10,50.0,46.0,1,1,1,36.1
Status,1712577379000,27,17,5,29,1561097980,44.60,282.0,42.0,1,1,1,39.6
Status,1712577379000,27,18,5,30,1561097980,46.30,28.0,61.0,1,1,1,41.3
Status,1712577379000,27,19,5,2,1561097980,0.00,111.0,19.0,0,1,0,0.0
Status,1712577379000,27,20,5,27,1561097980,0.00,66.0,17.0,0,1,1,0.0
Status,1712577379000,27,21,6,2,1575420030,45.00,277.0,75.0,1,1,0,40.0
Status,1712577379000,27,22,6,11,1575420030,37.80,43.0,30.0,1,1,1,32.8
Status,1712577379000,27,23,6,25,1575420030,39.30,151.0,43.0,1,1,0,34.3
Status,1712577379000,27,24,6,30,1575420030,41.70,314.0,24.0,1,1,0,36.7
Status,1712577379000,27,25,6,34,1575420030,48.80,239.0,39.0,1,1,0,43.8
Status,1712577379000,27,26,6,36,1575420030,46.00,351.0,78.0,1,1,0,41.0
Raw,1712577379437,14791802000000,18,,-1396597805635252160,-0.16173362731933594,17.836911865742877,-3.0752575349593645,9.55294512408009,953,10,0.0,49359,53779367855426,7,42.4,643.2158203125,0.23109999299049377,16,0.0,0.0,1598062460,,,,0,,3,0.6,39.4,,,,,,
Raw,1712577379437,14791802000000,18,,-1396597805635252160,-0.16173362731933594,17.836911865742877,-3.0752575349593645,9.55294512408009,953,11,0.0,49359,53779370948537,9,40.9,-129.31687927246094,0.23659999668598175,16,0.0,0.0,1602000000,,,,0,,3,0.6,37.9,,,,,,
Raw,1712577379437,14791802000000,18,,-1396597805635252160,-0.16173362731933594,17.836911865742877,-3.0752575349593645,9.55294512408009,953,20,0.0,49359,53779367029594,61,23.2,446.05377197265625,1.2869999408721924,16,0.0,0.0,1603124990,,,,0,,3,0.6,20.2,,,,,,
Raw,1712577379437,14791802000000,18,,-1396597805635252160,-0.16173362731933594,17.836911865742877,-3.0752575349593645,9.55294512408009,953,21,0.0,49359,53779369766974,12,37.1,-120.04508209228516,0.23740001022815704,16,0.0,0.0,1604249980,,,,0,,3,0.6,34.1,,,,,,
Raw,1712577379437,14791802000000,18,,-1396597805635252160,-0.16173362731933594,17.836911865742877,-3.0752575349593645,9.55294512408009,953,5,0.0,81935,129397360527448,16,34.0,395.6677551269531,0.02670000120997429,16,0.0,0.0,1575420030,,,,0,,1,-0.01,31.0,,,,,,
Raw,1712577379437,14791802000000,18,,-1396597805635252160,-0.16173362731933594,17.836911865742877,-3.0752575349593645,9.55294512408009,953,16,0.0,81935,129397358561409,11,38.2,-623.6578369140625,0.04990000277757645,16,0.0,0.0,1575420030,,,,0,,1,-0.01,35.2,,,,,,
Raw,1712577379437,14791802000000,18,,-1396597805635252160,-0.16173362731933594,17.836911865742877,-3.0752575349593645,9.55294512408009,953,18,0.0,81935,129397368808843,7,42.9,-30.08875846862793,0.032600000500679016,16,0.0,0.0,1575420030,,,,0,,1,-0.01,39.9,,,,,,
Raw,1712577379437,14791802000000,18,,-1396597805635252160,-0.16173362731933594,17.836911865742877,-3.0752575349593645,9.55294512408009,953,23,0.0,81935,129397361514644,6,44.6,-625.3795166015625,0.02110000140964985,16,0.0,0.0,1575420030,,,,0,,1,-0.01,41.6,,,,,,
Raw,1712577379437,14791802000000,18,,-1396597805635252160,-0.16173362731933594,17.836911865742877,-3.0752575349593645,9.55294512408009,953,25,0.0,81935,129397359706362,12,37.7,673.7871704101562,0.02240000106394291,16,0.0,0.0,1575420030,,,,0,,1,-0.01,34.7,,,,,,
Raw,1712577379437,14791802000000,18,,-1396597805635252160,-0.16173362731933594,17.836911865742877,-3.0752575349593645,9.55294512408009,953,26,0.0,81935,129397366383728,11,38.8,-294.90350341796875,0.03189999982714653,16,0.0,0.0,1575420030,,,,0,,1,-0.01,35.8,,,,,,
Raw,1712577379437,14791802000000,18,,-1396597805635252160,-0.16173362731933594,17.836911865742877,-3.0752575349593645,9.55294512408009,953,28,0.0,81935,129397357440549,10,39.6,535.1862182617188,0.047600001096725464,16,0.0,0.0,1575420030,,,,0,,1,-0.01,36.6,,,,,,
Raw,1712577379437,14791802000000,18,,-1396597805635252160,-0.16173362731933594,17.836911865742877,-3.0752575349593645,9.55294512408009,953,29,0.0,81935,129397365558850,8,41.4,253.17626953125,0.028699999675154686,16,0.0,0.0,1575420030,,,,0,,1,-0.01,38.4,,,,,,
Raw,1712577379437,14791802000000,18,,-1396597805635252160,-0.16173362731933594,17.836911865742877,-3.0752575349593645,9.55294512408009,953,31,0.0,81935,129397359208631,6,43.0,368.35198974609375,0.048600003123283386,16,0.0,0.0,1575420030,,,,0,,1,-0.01,40.0,,,,,,
Raw,1712577379437,14791802000000,18,,-1396597805635252160,-0.16173362731933594,17.836911865742877,-3.0752575349593645,9.55294512408009,953,8,0.0,16399,129383309778600,21,31.2,139.50184631347656,0.12470000237226486,16,0.0,0.0,1561097980,,,,0,,5,0.92,25.2,,,,,,
Raw,1712577379437,14791802000000,18,,-1396597805635252160,-0.16173362731933594,17.836911865742877,-3.0752575349593645,9.55294512408009,953,13,0.0,16399,129383312575570,14,35.1,67.61227416992188,0.043800003826618195,16,0.0,0.0,1561097980,,,,0,,5,0.92,29.1,,,,,,
Raw,1712577379437,14791802000000,18,,-1396597805635252160,-0.16173362731933594,17.836911865742877,-3.0752575349593645,9.55294512408009,953,29,0.0,16399,129383360356342,11,38.6,-280.4979553222656,0.02290000021457672,16,0.0,0.0,1561097980,,,,0,,5,0.92,32.6,,,,,,
Raw,1712577379437,14791802000000,18,,-1396597805635252160,-0.16173362731933594,17.836911865742877,-3.0752575349593645,9.55294512408009,953,30,0.0,16399,129383363352010,9,40.3,165.84024047851562,0.026100002229213715,16,0.0,0.0,1561097980,,,,0,,5,0.92,34.3,,,,,,
Raw,1712577379437,14791802000000,18,,-1396597805635252160,-0.16173362731933594,17.836911865742877,-3.0752575349593645,9.55294512408009,953,2,0.0,89103,129397359426455,10,39.0,-44.46510696411133,0.050599999725818634,16,0.0,0.0,1575420030,,,,0,,6,0.01,33.0,,,,,,
Raw,1712577379437,14791802000000,18,,-1396597805635252160,-0.16173362731933594,17.836911865742877,-3.0752575349593645,9.55294512408009,953,11,0.0,89103,129397354204545,21,31.8,444.5086364746094,0.13819999992847443,16,0.0,0.0,1575420030,,,,0,,6,0.01,25.8,,,,,,
Raw,1712577379437,14791802000000,18,,-1396597805635252160,-0.16173362731933594,17.836911865742877,-3.0752575349593645,9.55294512408009,953,25,0.0,89103,129397354407947,17,33.3,430.44122314453125,0.06030000001192093,16,0.0,0.0,1575420030,,,,0,,6,0.01,27.299999999999997,,,,,,
Raw,1712577379437,14791802000000,18,,-1396597805635252160,-0.16173362731933594,17.836911865742877,-3.0752575349593645,9.55294512408009,953,30,0.0,89103,129397349316667,14,35.7,-472.9173889160156,0.05130000412464142,16,0.0,0.0,1575420030,,,,0,,6,0.01,29.700000000000003,,,,,,
Raw,1712577379437,14791802000000,18,,-1396597805635252160,-0.16173362731933594,17.836911865742877,-3.0752575349593645,9.55294512408009,953,34,0.0,89103,129397353330727,7,42.8,-347.1357421875,0.04610000178217888,16,0.0,0.0,1575420030,,,,0,,6,0.01,36.8,,,,,,
Raw,1712577379437,14791802000000,18,,-1396597805635252160,-0.16173362731933594,17.836911865742877,-3.0752575349593645,9.55294512408009,953,36,0.0,89103,129397359231890,9,40.0,92.92829132080078,0.05010000243782997,16,0.0,0.0,1575420030,,,,0,,6,0.01,34.0,,,,,,
Fix,GPS,36.5452526400,29.1228675800,24.32781982421875,0.62,3.7900925,318.0,1712577380000,0.815414,4.620986,13853133687515,3.0,0,,,
Fix,FLP,36.5452521000,29.1228683000,31.299999237060547,0.6177497,3.9,318.0383,1712577380467,0.815414,4.620986,13853133687515,2.1362,0,,,
Status,1712577380000,27,0,1,5,1575420030,40.60,49.0,26.0,1,1,1,35.6
Status,1712577380000,27,1,1,16,1575420030,44.40,316.0,18.0,1,1,1,39.4
Status,1712577380000,27,2,1,18,1575420030,45.60,291.0,79.0,1,1,1,40.6
Status,1712577380000,27,3,1,23,1575420030,40.70,168.0,30.0,1,1,1,35.7
Status,1712577380000,27,4,1,25,1575420030,36.30,150.0,25.0,1,1,1,31.3
Status,1712577380000,27,5,1,26,1575420030,46.00,300.0,50.0,1,1,1,41.0
Status,1712577380000,27,6,1,28,1575420030,45.10,226.0,17.0,1,1,1,40.1
Status,1712577380000,27,7,1,29,1575420030,40.70,63.0,49.0,1,1,1,35.7
Status,1712577380000,27,8,1,31,1575420030,44.50,254.0,25.0,1,1,1,39.5
Status,1712577380000,27,9,3,10,1602000000,39.00,191.0,42.0,0,1,0,34.0
Status,1712577380000,27,10,3,11,1602000000,45.70,291.0,57.0,1,1,1,40.7
Status,1712577380000,27,11,3,20,1602000000,26.20,29.0,38.0,1,1,0,21.2
Status,1712577380000,27,12,3,21,1602000000,42.60,298.0,51.0,1,1,1,37.6
Status,1712577380000,27,13,3,5,1602000000,0.00,82.0,17.0,0,1,0,0.0
Status,1712577380000,27,14,5,5,1561097980,37.20,135.0,37.0,1,1,0,32.2
Status,1712577380000,27,15,5,8,1561097980,35.00,39.0,34.0,1,1,1,30.0
Status,1712577380000,27,16,5,13,1561097980,37.00,50.0,46.0,1,1,1,32.0
Status,1712577380000,27,17,5,29,1561097980,46.80,282.0,42.0,1,1,1,41.8
Status,1712577380000,27,18,5,30,1561097980,44.20,28.0,61.0,1,1,1,39.2
Status,1712577380000,27,19,5,2,1561097980,0.00,111.0,19.0,0,1,0,0.0
Status,1712577380000,27,20,5,27,1561097980,0.00,66.0,17.0,0,1,1,0.0
Status,1712577380000,27,21,6,2,1575420030,46.20,277.0,75.0,1,1,0,41.2
Status,1712577380000,27,22,6,11,1575420030,34.20,43.0,30.0,1,1,1,29.2
Status,1712577380000,27,23,6,25,1575420030,40.60,151.0,43.0,1,1,0,35.6
Status,1712577380000,27,24,6,30,1575420030,44.80,314.0,24.0,1,1,0,39.8
Status,1712577380000,27,25,6,34,1575420030,46.10,239.0,39.0,1,1,0,41.1
Status,1712577380000,27,26,6,36,1575420030,45.20,351.0,78.0,1,1,0,40.2
Raw,1712577380437,14792802000000,18,,-1396597805635252160,-0.9663963317871094,17.641728845774196,-2.447446972922098,9.539946292483682,953,10,0.0,49359,53780367853268,13,36.0,644.0765991210938,0.23569999635219574,16,0.0,0.0,1598062460,,,,0,,3,0.64,33.0,,,,,,
Raw,1712577380437,14792802000000,18,,-1396597805635252160,-0.9663963317871094,17.641728845774196,-2.447446972922098,9.539946292483682,953,11,0.0,49359,53780370948975,7,42.7,-128.55885314941406,0.23559999465942383,16,0.0,0.0,1602000000,,,,0,,3,0.64,39.7,,,,,,
Raw,1712577380437,14792802000000,18,,-1396597805635252160,-0.9663963317871094,17.641728845774196,-2.447446972922098,9.539946292483682,953,21,0.0,49359,53780369767345,10,39.6,-119.02623748779297,0.23560000956058502,16,0.0,0.0,1604249980,,,,0,,3,0.64,36.6,,,,,,
Raw,1712577380437,14792802000000,18,,-1396597805635252160,-0.9663963317871094,17.641728845774196,-2.447446972922098,9.539946292483682,953,5,0.0,81935,129398360526142,12,37.6,396.5255432128906,0.023900000378489494,16,0.0,0.0,1575420030,,,,0,,1,0.1,34.6,,,,,,
Raw,1712577380437,14792802000000,18,,-1396597805635252160,-0.9663963317871094,17.641728845774196,-2.447446972922098,9.539946292483682,953,16,0.0,81935,129398358563466,8,41.4,-622.9296875,0.04820000380277634,16,0.0,0.0,1575420030,,,,0,,1,0.1,38.4,,,,,,
Raw,1712577380437,14792802000000,18,,-1396597805635252160,-0.9663963317871094,17.641728845774196,-2.447446972922098,9.539946292483682,953,18,0.0,81935,129398368808954,7,42.6,-29.25693702697754,0.032600000500679016,16,0.0,0.0,1575420030,,,,0,,1,0.1,39.6,,,,,,
Raw,1712577380437,14792802000000,18,,-1396597805635252160,-0.9663963317871094,17.641728845774196,-2.447446972922098,9.539946292483682,953,23,0.0,81935,129398361516721,12,37.7,-624.5384521484375,0.02540000155568123,16,0.0,0.0,1575420030,,,,0,,1,0.1,34.7,,,,,,
Raw,1712577380437,14792802000000,18,,-1396597805635252160,-0.9663963317871094,17.641728845774196,-2.447446972922098,9.539946292483682,953,25,0.0,81935,129398359704119,17,33.3,674.3869018554688,0.03180000185966492,16,0.0,0.0,1575420030,,,,0,,1,0.1,30.299999999999997,,,,,,
Raw,1712577380437,14792802000000,18,,-1396597805635252160,-0.9663963317871094,17.641728845774196,-2.447446972922098,9.539946292483682,953,26,0.0,81935,129398366384681,6,43.0,-293.8891296386719,0.029100000858306885,16,0.0,0.0,1575420030,,,,0,,1,0.1,40.0,,,,,,
Raw,1712577380437,14792802000000,18,,-1396597805635252160,-0.9663963317871094,17.641728845774196,-2.447446972922098,9.539946292483682,953,28,0.0,81935,129398357438764,7,42.1,536.133544921875,0.04610000178217888,16,0.0,0.0,1575420030,,,,0,,1,0.1,39.1,,,,,,
Raw,1712577380437,14792802000000,18,,-1396597805635252160,-0.9663963317871094,17.641728845774196,-2.447446972922098,9.539946292483682,953,29,0.0,81935,129398365557996,12,37.7,254.08839416503906,0.03139999881386757,16,0.0,0.0,1575420030,,,,0,,1,0.1,34.7,,,,,,
Raw,1712577380437,14792802000000,18,,-1396597805635252160,-0.9663963317871094,17.641728845774196,-2.447446972922098,9.539946292483682,953,31,0.0,81935,129398359207366,8,41.5,368.8651123046875,0.04970000311732292,16,0.0,0.0,1575420030,,,,0,,1,0.1,38.5,,,,,,
Raw,1712577380437,14792802000000,18,,-1396597805635252160,-0.9663963317871094,17.641728845774196,-2.447446972922098,9.539946292483682,953,5,0.0,16399,129384309681418,39,31.2,-0.3552730679512024,10.207099914550781,16,0.0,0.0,1561097980,,,,0,,5,0.95,25.2,,,,,,
Raw,1712577380437,14792802000000,18,,-1396597805635252160,-0.9663963317871094,17.641728845774196,-2.447446972922098,9.539946292483682,953,8,0.0,16399,129384309778131,27,29.0,140.5921173095703,0.5399999618530273,16,0.0,0.0,1561097980,,,,0,,5,0.95,23.0,,,,,,
Raw,1712577380437,14792802000000,18,,-1396597805635252160,-0.9663963317871094,17.641728845774196,-2.447446972922098,9.539946292483682,953,13,0.0,16399,129384312575343,21,31.0,68.5490951538086,0.1292000114917755,16,0.0,0.0,1561097980,,,,0,,5,0.95,25.0,,,,,,
Raw,1712577380437,14792802000000,18,,-1396597805635252160,-0.9663963317871094,17.641728845774196,-2.447446972922098,9.539946292483682,953,29,0.0,16399,129384360357275,9,40.8,-279.87274169921875,0.02160000056028366,16,0.0,0.0,1561097980,,,,0,,5,0.95,34.8,,,,,,
Raw,1712577380437,14792802000000,18,,-1396597805635252160,-0.9663963317871094,17.641728845774196,-2.447446972922098,9.539946292483682,953,30,0.0,16399,129384363351473,11,38.2,166.6497039794922,0.027400001883506775,16,0.0,0.0,1561097980,,,,0,,5,0.95,32.2,,,,,,
Raw,1712577380437,14792802000000,18,,-1396597805635252160,-0.9663963317871094,17.641728845774196,-2.447446972922098,9.539946292483682,953,2,0.0,89103,129398359426597,9,40.2,-43.49504470825195,0.05010000243782997,16,0.0,0.0,1575420030,,,,0,,6,0.11,34.2,,,,,,
Raw,1712577380437,14792802000000,18,,-1396597805635252160,-0.9663963317871094,17.641728845774196,-2.447446972922098,9.539946292483682,953,11,0.0,89103,129398354203009,31,28.2,445.4013671875,0.6035000085830688,16,0.0,0.0,1575420030,,,,0,,6,0.11,22.2,,,,,,
Raw,1712577380437,14792802000000,18,,-1396597805635252160,-0.9663963317871094,17.641728845774196,-2.447446972922098,9.539946292483682,953,25,0.0,89103,129398354406505,16,34.6,431.0710144042969,0.053700003772974014,16,0.0,0.0,1575420030,,,,0,,6,0.11,28.6,,,,,,
Raw,1712577380437,14792802000000,18,,-1396597805635252160,-0.9663963317871094,17.641728845774196,-2.447446972922098,9.539946292483682,953,30,0.0,89103,129398349318244,11,38.8,-472.0724182128906,0.04840000346302986,16,0.0,0.0,1575420030,,,,0,,6,0.11,32.8,,,,,,
Raw,1712577380437,14792802000000,18,,-1396597805635252160,-0.9663963317871094,17.641728845774196,-2.447446972922098,9.539946292483682,953,34,0.0,89103,129398353331875,9,40.1,-346.2390441894531,0.0471000038087368,16,0.0,0.0,1575420030,,,,0,,6,0.11,34.1,,,,,,
Raw,1712577380437,14792802000000,18,,-1396597805635252160,-0.9663963317871094,17.641728845774196,-2.447446972922098,9.539946292483682,953,36,0.0,89103,129398359231565,10,39.2,93.79007720947266,0.050599999725818634,16,0.0,0.0,1575420030,,,,0,,6,0.11,33.2,,,,,,
Fix,GPS,36.5452579300,29.1228611000,24.57574462890625,0.68,3.7900925,318.0,1712577381000,0.8292768,8.488305,13854122945536,3.0,0,,,
Fix,FLP,36.5452576000,29.1228615000,31.299999237060547,0.6796193,3.9,317.997,1712577381456,0.8292768,8.488305,13854122945536,2.1460924,0,,,
Status,1712577381000,27,0,1,5,1575420030,43.40,49.0,26.0,1,1,1,38.4
Status,1712577381000,27,1,1,16,1575420030,40.40,316.0,18.0,1,1,1,35.4
Status,1712577381000,27,2,1,18,1575420030,47.10,291.0,79.0,1,1,1,42.1
Status,1712577381000,27,3,1,23,1575420030,47.20,168.0,30.0,1,1,1,42.2
Status,1712577381000,27,4,1,25,1575420030,39.60,150.0,25.0,1,1,1,34.6
Status,1712577381000,27,5,1,26,1575420030,42.10,300.0,50.0,1,1,1,37.1
Status,1712577381000,27,6,1,28,1575420030,46.00,226.0,17.0,1,1,1,41.0
Status,1712577381000,27,7,1,29,1575420030,37.00,63.0,49.0,1,1,1,32.0
Status,1712577381000,27,8,1,31,1575420030,46.00,254.0,25.0,1,1,1,41.0
Status,1712577381000,27,9,3,10,1602000000,43.30,191.0,42.0,0,1,0,38.3
Status,1712577381000,27,10,3,11,1602000000,39.30,291.0,57.0,1,1,1,34.3
Status,1712577381000,27,11,3,20,1602000000,26.20,29.0,38.0,1,1,0,21.2
Status,1712577381000,27,12,3,21,1602000000,42.20,298.0,51.0,1,1,1,37.2
Status,1712577381000,27,13,3,5,1602000000,0.00,82.0,17.0,0,1,0,0.0
Status,1712577381000,27,14,5,5,1561097980,37.20,135.0,37.0,1,1,0,32.2
Status,1712577381000,27,15,5,8,1561097980,37.40,39.0,34.0,1,1,1,32.4
Status,1712577381000,27,16,5,13,1561097980,36.00,50.0,46.0,1,1,1,31.0
Status,1712577381000,27,17,5,29,1561097980,42.60,282.0,42.0,1,1,1,37.6
Status,1712577381000,27,18,5,30,1561097980,39.30,28.0,61.0,1,1,1,34.3
Status,1712577381000,27,19,5,2,1561097980,0.00,111.0,19.0,0,1,0,0.0
Status,1712577381000,27,20,5,27,1561097980,0.00,66.0,17.0,0,1,1,0.0
Status,1712577381000,27,21,6,2,1575420030,49.30,277.0,75.0,1,1,0,44.3
Status,1712577381000,27,22,6,11,1575420030,31.20,43.0,30.0,1,1,1,26.2
Status,1712577381000,27,23,6,25,1575420030,41.10,151.0,43.0,1,1,0,36.1
Status,1712577381000,27,24,6,30,1575420030,43.40,314.0,24.0,1,1,0,38.4
Status,1712577381000,27,25,6,34,1575420030,47.30,239.0,39.0,1,1,0,42.3
Status,1712577381000,27,26,6,36,1575420030,44.70,351.0,78.0,1,1,0,39.7
Raw,1712577381437,14793802000000,18,,-1396597805635252153,-0.9628505706787109,18.16763870010618,0.10769164409714176,10.229476054502742,953,10,0.0,49359,53781367851153,9,40.3,643.9637451171875,0.2320999950170517,16,0.0,0.0,1598062460,,,,0,,3,0.61,37.3,,,,,,
Raw,1712577381437,14793802000000,18,,-1396597805635252153,-0.9628505706787109,18.16763870010618,0.10769164409714176,10.229476054502742,953,11,0.0,49359,53781370949376,13,36.3,-128.43821716308594,0.2401999980211258,16,0.0,0.0,1602000000,,,,0,,3,0.61,33.3,,,,,,
Raw,1712577381437,14793802000000,18,,-1396597805635252153,-0.9628505706787109,18.16763870010618,0.10769164409714176,10.229476054502742,953,21,0.0,49359,53781369767746,10,39.2,-119.18750762939453,0.23560000956058502,16,0.0,0.0,1604249980,,,,0,,3,0.61,36.2,,,,,,
Raw,1712577381437,14793802000000,18,,-1396597805635252153,-0.9628505706787109,18.16763870010618,0.10769164409714176,10.229476054502742,953,5,0.0,81935,129399360524822,9,40.4,396.7247619628906,0.02160000056028366,16,0.0,0.0,1575420030,,,,0,,1,0.06,37.4,,,,,,
Raw,1712577381437,14793802000000,18,,-1396597805635252153,-0.9628505706787109,18.16763870010618,0.10769164409714176,10.229476054502742,953,16,0.0,81935,129399358565548,12,37.4,-622.9835205078125,0.05090000107884407,16,0.0,0.0,1575420030,,,,0,,1,0.06,34.4,,,,,,
Raw,1712577381437,14793802000000,18,,-1396597805635252153,-0.9628505706787109,18.16763870010618,0.10769164409714176,10.229476054502742,953,18,0.0,81935,129399368809048,6,44.1,-29.288726806640625,0.03160000219941139,16,0.0,0.0,1575420030,,,,0,,1,0.06,41.1,,,,,,
Raw,1712577381437,14793802000000,18,,-1396597805635252153,-0.9628505706787109,18.16763870010618,0.10769164409714176,10.229476054502742,953,23,0.0,81935,129399361518826,6,44.2,-624.7232666015625,0.02110000140964985,16,0.0,0.0,1575420030,,,,0,,1,0.06,41.2,,,,,,
Raw,1712577381437,14793802000000,18,,-1396597805635252153,-0.9628505706787109,18.16763870010618,0.10769164409714176,10.229476054502742,953,25,0.0,81935,129399359701893,13,36.6,674.4996337890625,0.02370000071823597,16,0.0,0.0,1575420030,,,,0,,1,0.06,33.6,,,,,,
Raw,1712577381437,14793802000000,18,,-1396597805635252153,-0.9628505706787109,18.16763870010618,0.10769164409714176,10.229476054502742,953,26,0.0,81935,129399366385670,10,39.1,-294.1328430175781,0.03110000118613243,16,0.0,0.0,1575420030,,,,0,,1,0.06,36.1,,,,,,
Raw,1712577381437,14793802000000,18,,-1396597805635252153,-0.9628505706787109,18.16763870010618,0.10769164409714176,10.229476054502742,953,28,0.0,81935,129399357436965,6,43.0,535.67431640625,0.045600004494190216,16,0.0,0.0,1575420030,,,,0,,1,0.06,40.0,,,,,,
Raw,1712577381437,14793802000000,18,,-1396597805635252153,-0.9628505706787109,18.16763870010618,0.10769164409714176,10.229476054502742,953,29,0.0,81935,129399365557195,16,34.0,253.88327026367188,0.03420000150799751,16,0.0,0.0,1575420030,,,,0,,1,0.06,31.0,,,,,,
Raw,1712577381437,14793802000000,18,,-1396597805635252153,-0.9628505706787109,18.16763870010618,0.10769164409714176,10.229476054502742,953,31,0.0,81935,129399359206157,6,43.0,368.9198303222656,0.048600003123283386,16,0.0,0.0,1575420030,,,,0,,1,0.06,40.0,,,,,,
Raw,1712577381437,14793802000000,18,,-1396597805635252153,-0.9628505706787109,18.16763870010618,0.10769164409714176,10.229476054502742,953,8,0.0,16399,129385309777654,21,31.4,140.42030334472656,0.12470000237226486,16,0.0,0.0,1561097980,,,,0,,5,0.99,25.4,,,,,,
Raw,1712577381437,14793802000000,18,,-1396597805635252153,-0.9628505706787109,18.16763870010618,0.10769164409714176,10.229476054502742,953,13,0.0,16399,129385312575109,24,30.0,68.38795471191406,0.39980000257492065,16,0.0,0.0,1561097980,,,,0,,5,0.99,24.0,,,,,,
Raw,1712577381437,14793802000000,18,,-1396597805635252153,-0.9628505706787109,18.16763870010618,0.10769164409714176,10.229476054502742,953,29,0.0,16399,129385360358211,13,36.6,-279.96331787109375,0.025200000032782555,16,0.0,0.0,1561097980,,,,0,,5,0.99,30.6,,,,,,
Raw,1712577381437,14793802000000,18,,-1396597805635252153,-0.9628505706787109,18.16763870010618,0.10769164409714176,10.229476054502742,953,30,0.0,16399,129385363350922,17,33.3,166.385986328125,0.03779999911785126,16,0.0,0.0,1561097980,,,,0,,5,0.99,27.299999999999997,,,,,,
Raw,1712577381437,14793802000000,18,,-1396597805635252153,-0.9628505706787109,18.16763870010618,0.10769164409714176,10.229476054502742,953,2,0.0,89103,129399359426741,6,43.3,-43.50307846069336,0.048600003123283386,16,0.0,0.0,1575420030,,,,0,,6,0.09,37.3,,,,,,
Raw,1712577381437,14793802000000,18,,-1396597805635252153,-0.9628505706787109,18.16763870010618,0.10769164409714176,10.229476054502742,953,11,0.0,89103,129399354201545,46,25.2,445.039794921875,0.7534999847412109,16,0.0,0.0,1575420030,,,,0,,6,0.09,19.2,,,,,,
Raw,1712577381437,14793802000000,18,,-1396597805635252153,-0.9628505706787109,18.16763870010618,0.10769164409714176,10.229476054502742,953,25,0.0,89103,129399354405069,14,35.1,431.4115905761719,0.052800003439188004,16,0.0,0.0,1575420030,,,,0,,6,0.09,29.1,,,,,,
Raw,1712577381437,14793802000000,18,,-1396597805635252153,-0.9628505706787109,18.16763870010618,0.10769164409714176,10.229476054502742,953,30,0.0,89103,129399349319822,12,37.4,-472.1427001953125,0.049400001764297485,16,0.0,0.0,1575420030,,,,0,,6,0.09,31.4,,,,,,
Raw,1712577381437,14793802000000,18,,-1396597805635252153,-0.9628505706787109,18.16763870010618,0.10769164409714176,10.229476054502742,953,34,0.0,89103,129399353333044,8,41.3,-346.4703674316406,0.04670000448822975,16,0.0,0.0,1575420030,,,,0,,6,0.09,35.3,,,,,,
Raw,1712577381437,14793802000000,18,,-1396597805635252153,-0.9628505706787109,18.16763870010618,0.10769164409714176,10.229476054502742,953,36,0.0,89103,129399359231258,11,38.7,93.84152221679688,0.05140000209212303,16,0.0,0.0,1575420030,,,,0,,6,0.09,32.7,,,,,,
Fix,GPS,36.5452618200,29.1228544700,24.51708984375,0.7,3.7900925,317.8,1712577382000,0.815414,9.624182,13855138230952,3.0,0,,,
Fix,FLP,36.5452619000,29.1228548000,31.299999237060547,0.69988525,3.9,317.00467,1712577382472,0.815414,9.624182,13855138230952,2.1562452,0,,,
Fix,NLP,36.5459749000,29.1228342000,31.600000381469727,,95.567,,1712577379283,,,13851949000000,1.0890311,0,,,
Status,1712577382000,27,0,1,5,1575420030,33.40,49.0,26.0,1,1,1,28.4
Status,1712577382000,27,1,1,16,1575420030,40.90,316.0,18.0,1,1,1,35.9
Status,1712577382000,27,2,1,18,1575420030,45.00,291.0,79.0,1,1,1,40.0
Status,1712577382000,27,3,1,23,1575420030,46.50,168.0,30.0,1,1,1,41.5
Status,1712577382000,27,4,1,25,1575420030,36.00,150.0,25.0,1,1,1,31.0
Status,1712577382000,27,5,1,26,1575420030,44.20,300.0,50.0,1,1,1,39.2
Status,1712577382000,27,6,1,28,1575420030,41.00,226.0,17.0,1,1,1,36.0
Status,1712577382000,27,7,1,29,1575420030,39.70,63.0,49.0,1,1,1,34.7
Status,1712577382000,27,8,1,31,1575420030,42.20,254.0,25.0,1,1,1,37.2
Status,1712577382000,27,9,3,10,1602000000,43.70,191.0,42.0,0,1,0,38.7
Status,1712577382000,27,10,3,11,1602000000,41.80,291.0,57.0,1,1,1,36.8
Status,1712577382000,27,11,3,20,1602000000,26.20,29.0,38.0,1,1,0,21.2
Status,1712577382000,27,12,3,21,1602000000,39.00,298.0,51.0,1,1,1,34.0
Status,1712577382000,27,13,3,5,1602000000,0.00,82.0,17.0,0,1,0,0.0
Status,1712577382000,27,14,5,5,1561097980,39.90,135.0,37.0,1,1,0,34.9
Status,1712577382000,27,15,5,8,1561097980,36.10,39.0,34.0,1,1,1,31.1
Status,1712577382000,27,16,5,13,1561097980,36.20,50.0,46.0,1,1,1,31.2
Status,1712577382000,27,17,5,29,1561097980,46.60,282.0,42.0,1,1,1,41.6
Status,1712577382000,27,18,5,30,1561097980,41.10,28.0,61.0,1,1,1,36.1
Status,1712577382000,27,19,5,2,1561097980,0.00,111.0,19.0,0,1,0,0.0
Status,1712577382000,27,20,5,27,1561097980,0.00,66.0,17.0,0,1,1,0.0
Status,1712577382000,27,21,6,2,1575420030,46.90,277.0,75.0,1,1,0,41.9
Status,1712577382000,27,22,6,11,1575420030,40.70,43.0,30.0,1,1,1,35.7
Status,1712577382000,27,23,6,25,1575420030,40.30,151.0,42.0,1,1,0,35.3
Status,1712577382000,27,24,6,30,1575420030,41.90,314.0,25.0,1,1,0,36.9
Status,1712577382000,27,25,6,34,1575420030,48.80,239.0,39.0,1,1,0,43.8
Status,1712577382000,27,26,6,36,1575420030,44.80,352.0,78.0,1,1,0,39.8
Raw,1712577382437,14794802000000,18,,-1396597805635252157,-0.5987339019775391,17.84328924259171,-0.4600116610540022,10.474425098676488,953,10,0.0,49359,53782367848991,9,40.7,643.7637939453125,0.2320999950170517,16,0.0,0.0,1598062460,,,,0,,3,0.61,37.7,,,,,,
Raw,1712577382437,14794802000000,18,,-1396597805635252157,-0.5987339019775391,17.84328924259171,-0.4600116610540022,10.474425098676488,953,11,0.0,49359,53782370949806,11,38.8,-128.6960906982422,0.2379000037908554,16,0.0,0.0,1602000000,,,,0,,3,0.61,35.8,,,,,,
Raw,1712577382437,14794802000000,18,,-1396597805635252157,-0.5987339019775391,17.84328924259171,-0.4600116610540022,10.474425098676488,953,21,0.0,49359,53782369768167,13,36.0,-119.76841735839844,0.2387000024318695,16,0.0,0.0,1604249980,,,,0,,3,0.61,33.0,,,,,,
Raw,1712577382437,14794802000000,18,,-1396597805635252157,-0.5987339019775391,17.84328924259171,-0.4600116610540022,10.474425098676488,953,5,0.0,81935,129400360523480,24,30.4,396.0249938964844,0.38179999589920044,16,0.0,0.0,1575420030,,,,0,,1,0.04,27.4,,,,,,
Raw,1712577382437,14794802000000,18,,-1396597805635252157,-0.5987339019775391,17.84328924259171,-0.4600116610540022,10.474425098676488,953,16,0.0,81935,129400358567617,12,37.9,-623.5504760742188,0.05090000107884407,16,0.0,0.0,1575420030,,,,0,,1,0.04,34.9,,,,,,
Raw,1712577382437,14794802000000,18,,-1396597805635252157,-0.5987339019775391,17.84328924259171,-0.4600116610540022,10.474425098676488,953,18,0.0,81935,129400368809152,7,42.0,-29.60495948791504,0.032600000500679016,16,0.0,0.0,1575420030,,,,0,,1,0.04,39.0,,,,,,
Raw,1712577382437,14794802000000,18,,-1396597805635252157,-0.5987339019775391,17.84328924259171,-0.4600116610540022,10.474425098676488,953,23,0.0,81935,129400361520905,6,43.5,-625.00634765625,0.02160000056028366,16,0.0,0.0,1575420030,,,,0,,1,0.04,40.5,,,,,,
Raw,1712577382437,14794802000000,18,,-1396597805635252157,-0.5987339019775391,17.84328924259171,-0.4600116610540022,10.474425098676488,953,25,0.0,81935,129400359699571,17,33.0,674.1029052734375,0.03180000185966492,16,0.0,0.0,1575420030,,,,0,,1,0.04,30.0,,,,,,
Raw,1712577382437,14794802000000,18,,-1396597805635252157,-0.5987339019775391,17.84328924259171,-0.4600116610540022,10.474425098676488,953,26,0.0,81935,129400366386660,8,41.2,-294.5267028808594,0.03020000085234642,16,0.0,0.0,1575420030,,,,0,,1,0.04,38.2,,,,,,
Raw,1712577382437,14794802000000,18,,-1396597805635252157,-0.5987339019775391,17.84328924259171,-0.4600116610540022,10.474425098676488,953,28,0.0,81935,129400357435241,11,38.0,535.272705078125,0.04840000346302986,16,0.0,0.0,1575420030,,,,0,,1,0.04,35.0,,,,,,
Raw,1712577382437,14794802000000,18,,-1396597805635252157,-0.5987339019775391,17.84328924259171,-0.4600116610540022,10.474425098676488,953,29,0.0,81935,129400365556335,13,36.7,253.556884765625,0.03270000219345093,16,0.0,0.0,1575420030,,,,0,,1,0.04,33.7,,,,,,
Raw,1712577382437,14794802000000,18,,-1396597805635252157,-0.5987339019775391,17.84328924259171,-0.4600116610540022,10.474425098676488,953,31,0.0,81935,129400359204952,10,39.2,368.4775695800781,0.050599999725818634,16,0.0,0.0,1575420030,,,,0,,1,0.04,36.2,,,,,,
Raw,1712577382437,14794802000000,18,,-1396597805635252157,-0.5987339019775391,17.84328924259171,-0.4600116610540022,10.474425098676488,953,5,0.0,16399,129386309681485,32,33.9,-3.005418062210083,8.428000450134277,16,0.0,0.0,1561097980,,,,0,,5,0.92,27.9,,,,,,
Raw,1712577382437,14794802000000,18,,-1396597805635252157,-0.5987339019775391,17.84328924259171,-0.4600116610540022,10.474425098676488,953,8,0.0,16399,129386309777209,24,30.1,139.90670776367188,0.3953000009059906,16,0.0,0.0,1561097980,,,,0,,5,0.92,24.1,,,,,,
Raw,1712577382437,14794802000000,18,,-1396597805635252157,-0.5987339019775391,17.84328924259171,-0.4600116610540022,10.474425098676488,953,13,0.0,16399,129386312574913,24,30.2,68.18325805664062,0.39980000257492065,16,0.0,0.0,1561097980,,,,0,,5,0.92,24.2,,,,,,
Raw,1712577382437,14794802000000,18,,-1396597805635252157,-0.5987339019775391,17.84328924259171,-0.4600116610540022,10.474425098676488,953,29,0.0,16399,129386360359139,9,40.6,-280.3681945800781,0.02160000056028366,16,0.0,0.0,1561097980,,,,0,,5,0.92,34.6,,,,,,
Raw,1712577382437,14794802000000,18,,-1396597805635252157,-0.5987339019775391,17.84328924259171,-0.4600116610540022,10.474425098676488,953,30,0.0,16399,129386363350350,14,35.1,166.23167419433594,0.030300002545118332,16,0.0,0.0,1561097980,,,,0,,5,0.92,29.1,,,,,,
Raw,1712577382437,14794802000000,18,,-1396597805635252157,-0.5987339019775391,17.84328924259171,-0.4600116610540022,10.474425098676488,953,2,0.0,89103,129400359426888,9,40.9,-44.0253791809082,0.05010000243782997,16,0.0,0.0,1575420030,,,,0,,6,0.06,34.9,,,,,,
Raw,1712577382437,14794802000000,18,,-1396597805635252157,-0.5987339019775391,17.84328924259171,-0.4600116610540022,10.474425098676488,953,11,0.0,89103,129400354200056,16,34.7,444.7906494140625,0.053700003772974014,16,0.0,0.0,1575420030,,,,0,,6,0.06,28.700000000000003,,,,,,
Raw,1712577382437,14794802000000,18,,-1396597805635252157,-0.5987339019775391,17.84328924259171,-0.4600116610540022,10.474425098676488,953,25,0.0,89103,129400354403632,16,34.3,431.0120849609375,0.053700003772974014,16,0.0,0.0,1575420030,,,,0,,6,0.06,28.299999999999997,,,,,,
Raw,1712577382437,14794802000000,18,,-1396597805635252157,-0.5987339019775391,17.84328924259171,-0.4600116610540022,10.474425098676488,953,30,0.0,89103,129400349321396,14,35.9,-472.820068359375,0.05130000412464142,16,0.0,0.0,1575420030,,,,0,,6,0.06,29.9,,,,,,
Raw,1712577382437,14794802000000,18,,-1396597805635252157,-0.5987339019775391,17.84328924259171,-0.4600116610540022,10.474425098676488,953,34,0.0,89103,129400353334200,7,42.8,-346.985107421875,0.04610000178217888,16,0.0,0.0,1575420030,,,,0,,6,0.06,36.8,,,,,,
Raw,1712577382437,14794802000000,18,,-1396597805635252157,-0.5987339019775391,17.84328924259171,-0.4600116610540022,10.474425098676488,953,36,0.0,89103,129400359230955,11,38.8,93.26611328125,0.05140000209212303,16,0.0,0.0,1575420030,,,,0,,6,0.06,32.8,,,,,,
Fix,GPS,36.5452643800,29.1228458900,24.244140625,0.79,3.7900925,317.7,1712577383000,0.815414,11.456092,13856127476160,3.0,0,,,
Fix,FLP,36.5452647000,29.1228465000,31.600000381469727,0.78944594,3.9,316.99664,1712577383461,0.815414,11.456092,13856127476160,1.1308159,0,,,
Status,1712577383000,27,0,1,5,1575420030,39.50,49.0,26.0,1,1,1,34.5
Status,1712577383000,27,1,1,16,1575420030,43.90,316.0,18.0,1,1,1,38.9
Status,1712577383000,27,2,1,18,1575420030,44.80,291.0,79.0,1,1,1,39.8
Status,1712577383000,27,3,1,23,1575420030,43.80,168.0,30.0,1,1,1,38.8
Status,1712577383000,27,4,1,25,1575420030,35.80,150.0,25.0,1,1,1,30.8
Status,1712577383000,27,5,1,26,1575420030,44.30,300.0,50.0,1,1,1,39.3
Status,1712577383000,27,6,1,28,1575420030,46.00,226.0,17.0,1,1,1,41.0
Status,1712577383000,27,7,1,29,1575420030,38.30,63.0,49.0,1,1,1,33.3
Status,1712577383000,27,8,1,31,1575420030,45.50,254.0,25.0,1,1,1,40.5
Status,1712577383000,27,9,3,10,1602000000,41.50,191.0,42.0,0,1,0,36.5
Status,1712577383000,27,10,3,11,1602000000,44.50,291.0,57.0,1,1,1,39.5
Status,1712577383000,27,11,3,20,1602000000,26.20,29.0,38.0,1,1,0,21.2
Status,1712577383000,27,12,3,21,1602000000,42.00,298.0,51.0,1,1,1,37.0
Status,1712577383000,27,13,3,5,1602000000,0.00,82.0,17.0,0,1,0,0.0
Status,1712577383000,27,14,5,5,1561097980,38.90,135.0,37.0,1,1,0,33.9
Status,1712577383000,27,15,5,8,1561097980,36.70,39.0,34.0,1,1,1,31.7
Status,1712577383000,27,16,5,13,1561097980,39.80,50.0,46.0,1,1,1,34.8
Status,1712577383000,27,17,5,29,1561097980,48.40,282.0,42.0,1,1,1,43.4
Status,1712577383000,27,18,5,30,1561097980,37.90,28.0,61.0,1,1,1,32.9
Status,1712577383000,27,19,5,2,1561097980,0.00,111.0,19.0,0,1,0,0.0
Status,1712577383000,27,20,5,27,1561097980,0.00,66.0,17.0,0,1,1,0.0
Status,1712577383000,27,21,6,2,1575420030,44.90,277.0,75.0,1,1,0,39.9
Status,1712577383000,27,22,6,11,1575420030,38.70,43.0,30.0,1,1,1,33.7
Status,1712577383000,27,23,6,25,1575420030,39.70,151.0,42.0,1,1,0,34.7
Status,1712577383000,27,24,6,30,1575420030,43.90,314.0,25.0,1,1,0,38.9
Status,1712577383000,27,25,6,34,1575420030,47.60,239.0,39.0,1,1,0,42.6
Status,1712577383000,27,26,6,36,1575420030,44.70,352.0,78.0,1,1,0,39.7
Raw,1712577383437,14795802000000,18,,-1396597805635252166,-0.7182445526123047,17.47210080793593,-2.2305231551809985,9.616029022441781,953,10,0.0,49359,53783367846864,11,38.5,643.8181762695312,0.23340000212192535,16,0.0,0.0,1598062460,,,,0,,3,0.61,35.5,,,,,,
Raw,1712577383437,14795802000000,18,,-1396597805635252166,-0.7182445526123047,17.47210080793593,-2.2305231551809985,9.616029022441781,953,11,0.0,49359,53783370950223,8,41.5,-128.75369262695312,0.2362000048160553,16,0.0,0.0,1602000000,,,,0,,3,0.61,38.5,,,,,,
Raw,1712577383437,14795802000000,18,,-1396597805635252166,-0.7182445526123047,17.47210080793593,-2.2305231551809985,9.616029022441781,953,21,0.0,49359,53783369768568,10,39.0,-119.73695373535156,0.23560000956058502,16,0.0,0.0,1604249980,,,,0,,3,0.61,36.0,,,,,,
Raw,1712577383437,14795802000000,18,,-1396597805635252166,-0.7182445526123047,17.47210080793593,-2.2305231551809985,9.616029022441781,953,5,0.0,81935,129401360522183,13,36.5,396.2468566894531,0.025200000032782555,16,0.0,0.0,1575420030,,,,0,,1,0.04,33.5,,,,,,
Raw,1712577383437,14795802000000,18,,-1396597805635252166,-0.7182445526123047,17.47210080793593,-2.2305231551809985,9.616029022441781,953,16,0.0,81935,129401358569715,9,40.9,-623.462158203125,0.048600003123283386,16,0.0,0.0,1575420030,,,,0,,1,0.04,37.9,,,,,,
Raw,1712577383437,14795802000000,18,,-1396597805635252166,-0.7182445526123047,17.47210080793593,-2.2305231551809985,9.616029022441781,953,18,0.0,81935,129401368809245,8,41.8,-29.79986572265625,0.03320000320672989,16,0.0,0.0,1575420030,,,,0,,1,0.04,38.8,,,,,,
Raw,1712577383437,14795802000000,18,,-1396597805635252166,-0.7182445526123047,17.47210080793593,-2.2305231551809985,9.616029022441781,953,23,0.0,81935,129401361522989,9,40.8,-624.9564208984375,0.023100001737475395,16,0.0,0.0,1575420030,,,,0,,1,0.04,37.8,,,,,,
Raw,1712577383437,14795802000000,18,,-1396597805635252166,-0.7182445526123047,17.47210080793593,-2.2305231551809985,9.616029022441781,953,25,0.0,81935,129401359697376,19,32.8,674.0791625976562,0.0398000031709671,16,0.0,0.0,1575420030,,,,0,,1,0.04,29.799999999999997,,,,,,
Raw,1712577383437,14795802000000,18,,-1396597805635252166,-0.7182445526123047,17.47210080793593,-2.2305231551809985,9.616029022441781,953,26,0.0,81935,129401366387651,8,41.3,-294.3476867675781,0.03020000085234642,16,0.0,0.0,1575420030,,,,0,,1,0.04,38.3,,,,,,
Raw,1712577383437,14795802000000,18,,-1396597805635252166,-0.7182445526123047,17.47210080793593,-2.2305231551809985,9.616029022441781,953,28,0.0,81935,129401357433425,6,43.0,535.5400390625,0.045600004494190216,16,0.0,0.0,1575420030,,,,0,,1,0.04,40.0,,,,,,
Raw,1712577383437,14795802000000,18,,-1396597805635252166,-0.7182445526123047,17.47210080793593,-2.2305231551809985,9.616029022441781,953,29,0.0,81935,129401365555421,14,35.3,253.78680419921875,0.0333000011742115,16,0.0,0.0,1575420030,,,,0,,1,0.04,32.3,,,,,,
Raw,1712577383437,14795802000000,18,,-1396597805635252166,-0.7182445526123047,17.47210080793593,-2.2305231551809985,9.616029022441781,953,31,0.0,81935,129401359203699,7,42.5,368.72650146484375,0.04910000041127205,16,0.0,0.0,1575420030,,,,0,,1,0.04,39.5,,,,,,
Raw,1712577383437,14795802000000,18,,-1396597805635252166,-0.7182445526123047,17.47210080793593,-2.2305231551809985,9.616029022441781,953,5,0.0,16399,129387309681543,19,32.9,-3.9944217205047607,8.567500114440918,16,0.0,0.0,1561097980,,,,0,,5,0.88,26.9,,,,,,
Raw,1712577383437,14795802000000,18,,-1396597805635252166,-0.7182445526123047,17.47210080793593,-2.2305231551809985,9.616029022441781,953,8,0.0,16399,129387309776746,24,30.7,139.70269775390625,0.3953000009059906,16,0.0,0.0,1561097980,,,,0,,5,0.88,24.7,,,,,,
Raw,1712577383437,14795802000000,18,,-1396597805635252166,-0.7182445526123047,17.47210080793593,-2.2305231551809985,9.616029022441781,953,13,0.0,16399,129387312574660,17,33.8,67.8017578125,0.05130000412464142,16,0.0,0.0,1561097980,,,,0,,5,0.88,27.799999999999997,,,,,,
Raw,1712577383437,14795802000000,18,,-1396597805635252166,-0.7182445526123047,17.47210080793593,-2.2305231551809985,9.616029022441781,953,29,0.0,16399,129387360360072,7,42.4,-280.2767028808594,0.020600000396370888,16,0.0,0.0,1561097980,,,,0,,5,0.88,36.4,,,,,,
Raw,1712577383437,14795802000000,18,,-1396597805635252166,-0.7182445526123047,17.47210080793593,-2.2305231551809985,9.616029022441781,953,30,0.0,16399,129387363349807,21,31.9,165.91525268554688,0.11570000648498535,16,0.0,0.0,1561097980,,,,0,,5,0.88,25.9,,,,,,
Raw,1712577383437,14795802000000,18,,-1396597805635252166,-0.7182445526123047,17.47210080793593,-2.2305231551809985,9.616029022441781,953,2,0.0,89103,129401359427040,11,38.9,-43.87681579589844,0.05140000209212303,16,0.0,0.0,1575420030,,,,0,,6,0.06,32.9,,,,,,
Raw,1712577383437,14795802000000,18,,-1396597805635252166,-0.7182445526123047,17.47210080793593,-2.2305231551809985,9.616029022441781,953,11,0.0,89103,129401354198594,19,32.7,444.8897705078125,0.06830000132322311,16,0.0,0.0,1575420030,,,,0,,6,0.06,26.700000000000003,,,,,,
Raw,1712577383437,14795802000000,18,,-1396597805635252166,-0.7182445526123047,17.47210080793593,-2.2305231551809985,9.616029022441781,953,25,0.0,89103,129401354402208,17,33.7,431.1831970214844,0.06030000001192093,16,0.0,0.0,1575420030,,,,0,,6,0.06,27.700000000000003,,,,,,
Raw,1712577383437,14795802000000,18,,-1396597805635252166,-0.7182445526123047,17.47210080793593,-2.2305231551809985,9.616029022441781,953,30,0.0,89103,129401349322974,12,37.9,-472.67169189453125,0.049400001764297485,16,0.0,0.0,1575420030,,,,0,,6,0.06,31.9,,,,,,
Raw,1712577383437,14795802000000,18,,-1396597805635252166,-0.7182445526123047,17.47210080793593,-2.2305231551809985,9.616029022441781,953,34,0.0,89103,129401353335345,8,41.6,-346.7016296386719,0.04670000448822975,16,0.0,0.0,1575420030,,,,0,,6,0.06,35.6,,,,,,
Raw,1712577383437,14795802000000,18,,-1396597805635252166,-0.7182445526123047,17.47210080793593,-2.2305231551809985,9.616029022441781,953,36,0.0,89103,129401359230650,11,38.7,93.3302001953125,0.05140000209212303,16,0.0,0.0,1575420030,,,,0,,6,0.06,32.7,,,,,,
Fix,GPS,36.5452683100,29.1228386400,24.41094970703125,0.77,3.7900925,317.8,1712577384000,0.8348653,13.875959,13857130349337,3.0,0,,,
Fix,FLP,36.5452686000,29.1228389000,31.600000381469727,0.7701234,3.9,316.99997,1712577384464,0.8348653,13.875959,13857130349337,1.1408446,0,,,
Status,1712577384000,27,0,1,5,1575420030,41.80,49.0,26.0,1,1,1,36.8
Status,1712577384000,27,1,1,16,1575420030,35.80,316.0,18.0,1,1,1,30.8
Status,1712577384000,27,2,1,18,1575420030,44.00,291.0,79.0,1,1,1,39.0
Status,1712577384000,27,3,1,23,1575420030,45.00,168.0,30.0,1,1,1,40.0
Status,1712577384000,27,4,1,25,1575420030,34.50,150.0,25.0,1,1,1,29.5
