# 
# Header Description:
# 
# Version: v3.0.6.4 Platform: 13 Manufacturer: samsung Model: SM-A715F
# 
# Raw,utcTimeMillis,TimeNanos,LeapSecond,TimeUncertaintyNanos,FullBiasNanos,BiasNanos,BiasUncertaintyNanos,DriftNanosPerSecond,DriftUncertaintyNanosPerSecond,HardwareClockDiscontinuityCount,Svid,TimeOffsetNanos,State,ReceivedSvTimeNanos,ReceivedSvTimeUncertaintyNanos,Cn0DbHz,PseudorangeRateMetersPerSecond,PseudorangeRateUncertaintyMetersPerSecond,AccumulatedDeltaRangeState,AccumulatedDeltaRangeMeters,AccumulatedDeltaRangeUncertaintyMeters,CarrierFrequencyHz,CarrierCycles,CarrierPhase,CarrierPhaseUncertainty,MultipathIndicator,SnrInDb,ConstellationType,AgcDb,BasebandCn0DbHz,FullInterSignalBiasNanos,FullInterSignalBiasUncertaintyNanos,SatelliteInterSignalBiasNanos,SatelliteInterSignalBiasUncertaintyNanos,CodeType,ChipsetElapsedRealtimeNanos
# 
# UncalAccel,utcTimeMillis,elapsedRealtimeNanos,UncalAccelXMps2,UncalAccelYMps2,UncalAccelZMps2,BiasXMps2,BiasYMps2,BiasZMps2
# 
# Accel,utcTimeMillis,elapsedRealtimeNanos,AccelXMps2,AccelYMps2,AccelZMps2
# 
# UncalGyro,utcTimeMillis,elapsedRealtimeNanos,UncalGyroXRadPerSec,UncalGyroYRadPerSec,UncalGyroZRadPerSec,DriftXRadPerSec,DriftYRadPerSec,DriftZRadPerSec
# 
# Gyro,utcTimeMillis,elapsedRealtimeNanos,GyroXRadPerSec,GyroYRadPerSec,GyroZRadPerSec
# 
# UncalMag,utcTimeMillis,elapsedRealtimeNanos,UncalMagXMicroT,UncalMagYMicroT,UncalMagZMicroT,BiasXMicroT,BiasYMicroT,BiasZMicroT
# 
# Mag,utcTimeMillis,elapsedRealtimeNanos,MagXMicroT,MagYMicroT,MagZMicroT
# 
# OrientationDeg,utcTimeMillis,elapsedRealtimeNanos,yawDeg,rollDeg,pitchDeg
# 
# Fix,Provider,LatitudeDegrees,LongitudeDegrees,AltitudeMeters,SpeedMps,AccuracyMeters,BearingDegrees,UnixTimeMillis,SpeedAccuracyMps,BearingAccuracyDegrees,elapsedRealtimeNanos,VerticalAccuracyMeters,MockLocation,NumberOfUsedSignals,VerticalSpeedAccuracyMps,SolutionType
# 
# Nav,Svid,Type,Status,MessageId,Sub-messageId,Data(Bytes)
# 
# Status,UnixTimeMillis,SignalCount,SignalIndex,ConstellationType,Svid,CarrierFrequencyHz,Cn0DbHz,AzimuthDegrees,ElevationDegrees,UsedInFix,HasAlmanacData,HasEphemerisData,BasebandCn0DbHz
# 
# Agc,utcTimeMillis,TimeNanos,LeapSecond,TimeUncertaintyNanos,FullBiasNanos,BiasNanos,BiasUncertaintyNanos,DriftNanosPerSecond,DriftUncertaintyNanosPerSecond,HardwareClockDiscontinuityCount,AgcDb,CarrierFrequencyHz,ConstellationType
# 
Fix,FLP,36.5452387000,29.1228853000,31.299999237060547,0.13377713,3.863,193.58522,1712576971462,0.8765843,45.0,13444128700015,8.271455,0,,,
Status,,28,0,1,5,1575420030,35.10,52.0,28.0,1,1,1,30.1
Status,,28,1,1,16,1575420030,24.00,316.0,15.0,0,1,1,19.0
Status,,28,2,1,18,1575420030,26.20,272.0,78.0,1,1,1,21.2
Status,,28,3,1,23,1575420030,41.20,168.0,28.0,1,1,1,36.2
Status,,28,4,1,25,1575420030,35.10,149.0,28.0,1,1,1,30.1
Status,,28,5,1,26,1575420030,28.90,302.0,47.0,1,1,1,23.9
Status,,28,6,1,28,1575420030,41.00,227.0,19.0,1,1,1,36.0
Status,,28,7,1,29,1575420030,44.00,59.0,51.0,1,1,1,39.0
Status,,28,8,1,31,1575420030,33.10,258.0,26.0,1,1,1,28.1
Status,,28,9,3,10,1602000000,30.60,191.0,46.0,0,1,0,25.6
Status,,28,10,3,11,1602000000,37.50,296.0,56.0,1,1,1,32.5
Status,,28,11,3,20,1602000000,28.80,25.0,41.0,1,1,0,23.8
Status,,28,12,3,21,1602000000,34.80,292.0,50.0,1,1,1,29.8
Status,,28,13,3,5,1602000000,0.00,85.0,16.0,0,1,0,0.0
Status,,28,14,5,5,1561097980,41.70,135.0,37.0,1,1,0,36.7
Status,,28,15,5,8,1561097980,42.60,40.0,35.0,1,1,1,37.6
Status,,28,16,5,13,1561097980,44.70,52.0,46.0,1,1,1,39.7
Status,,28,17,5,27,1561097980,28.80,64.0,19.0,1,1,1,23.8
Status,,28,18,5,29,1561097980,43.70,279.0,41.0,1,1,1,38.7
Status,,28,19,5,30,1561097980,36.20,23.0,62.0,1,1,1,31.2
Status,,28,20,5,2,1561097980,0.00,111.0,19.0,0,1,0,0.0
Status,,28,21,2,136,1575420030,37.40,0.0,0.0,0,0,0,32.4
Status,,28,22,6,2,1575420030,38.90,286.0,75.0,1,1,0,33.9
Status,,28,23,6,11,1575420030,41.20,42.0,33.0,1,1,1,36.2
Status,,28,24,6,25,1575420030,43.60,150.0,45.0,1,1,0,38.6
Status,,28,25,6,30,1575420030,38.10,316.0,22.0,1,1,0,33.1
Status,,28,26,6,34,1575420030,45.20,236.0,37.0,1,1,0,40.2
Status,,28,27,6,36,1575420030,29.30,343.0,80.0,1,1,0,24.3
Fix,GPS,36.5452406800,29.1228809000,20.8681640625,0.0,3.7900925,,1712576972000,0.10816654,,13445116969286,3.0,0,,,
Raw,1712576971437,14383802000000,18,,-1396597805635252479,-0.16579246520996094,32.956741051748395,12.544266948806122,18.837256211474706,871,10,0.0,49359,53371368702632,35,27.6,597.9950561523438,0.9984999895095825,16,0.0,0.0,1598062460,,,,0,,3,0.56,24.6,,,,,,
Raw,1712576971437,14383802000000,18,,-1396597805635252479,-0.16579246520996094,32.956741051748395,12.544266948806122,18.837256211474706,871,11,0.0,49359,53371370727667,16,34.5,-197.83987426757812,0.24169999361038208,16,0.0,0.0,1602000000,,,,0,,3,0.56,31.5,,,,,,
Raw,1712576971437,14383802000000,18,,-1396597805635252479,-0.16579246520996094,32.956741051748395,12.544266948806122,18.837256211474706,871,20,0.0,49359,53371367630544,46,25.8,434.6278076171875,1.1269999742507935,16,0.0,0.0,1603124990,,,,0,,3,0.56,22.8,,,,,,
Raw,1712576971437,14383802000000,18,,-1396597805635252479,-0.16579246520996094,32.956741051748395,12.544266948806122,18.837256211474706,871,21,0.0,49359,53371369586545,21,31.8,-148.31703186035156,0.3246999979019165,16,0.0,0.0,1604249980,,,,0,,3,0.56,28.8,,,,,,
Raw,1712576971437,14383802000000,18,,-1396597805635252479,-0.16579246520996094,32.956741051748395,12.544266948806122,18.837256211474706,871,5,0.0,81935,128989361037049,19,32.1,350.1432189941406,0.04280000180006027,16,0.0,0.0,1575420030,,,,0,,1,0.43,29.1,,,,,,
Raw,1712576971437,14383802000000,18,,-1396597805635252479,-0.16579246520996094,32.956741051748395,12.544266948806122,18.837256211474706,871,18,0.0,81935,128989368744665,61,23.2,-67.2497787475586,1.088499903678894,16,0.0,0.0,1575420030,,,,0,,1,0.43,20.2,,,,,,
Raw,1712576971437,14383802000000,18,,-1396597805635252479,-0.16579246520996094,32.956741051748395,12.544266948806122,18.837256211474706,871,23,0.0,81935,128989360652360,11,38.2,-643.373046875,0.02290000021457672,16,0.0,0.0,1575420030,,,,0,,1,0.43,35.2,,,,,,
Raw,1712576971437,14383802000000,18,,-1396597805635252479,-0.16579246520996094,32.956741051748395,12.544266948806122,18.837256211474706,871,25,0.0,81935,128989360613204,19,32.1,656.3894653320312,0.5264999866485596,16,0.0,0.0,1575420030,,,,0,,1,0.43,29.1,,,,,,
Raw,1712576971437,14383802000000,18,,-1396597805635252479,-0.16579246520996094,32.956741051748395,12.544266948806122,18.837256211474706,871,28,0.0,81935,128989358162599,11,38.0,522.7080078125,0.04990000277757645,16,0.0,0.0,1575420030,,,,0,,1,0.43,35.0,,,,,,
Raw,1712576971437,14383802000000,18,,-1396597805635252479,-0.16579246520996094,32.956741051748395,12.544266948806122,18.837256211474706,871,29,0.0,81935,128989365892621,8,41.0,234.828125,0.028699999675154686,16,0.0,0.0,1575420030,,,,0,,1,0.43,38.0,,,,,,
Raw,1712576971437,14383802000000,18,,-1396597805635252479,-0.16579246520996094,32.956741051748395,12.544266948806122,18.837256211474706,871,31,0.0,81935,128989359689987,24,30.1,335.7307434082031,0.38029998540878296,16,0.0,0.0,1575420030,,,,0,,1,0.43,27.1,,,,,,
Raw,1712576971437,14383802000000,18,,-1396597805635252479,-0.16579246520996094,32.956741051748395,12.544266948806122,18.837256211474706,871,5,0.0,16399,128975309671889,14,35.7,-6.135662078857422,6.367099761962891,16,0.0,0.0,1561097980,,,,0,,5,1.13,29.700000000000003,,,,,,
Raw,1712576971437,14383802000000,18,,-1396597805635252479,-0.16579246520996094,32.956741051748395,12.544266948806122,18.837256211474706,871,8,0.0,16399,128975309962404,13,36.6,127.89205169677734,0.03869999945163727,16,0.0,0.0,1561097980,,,,0,,5,1.13,30.6,,,,,,
Raw,1712576971437,14383802000000,18,,-1396597805635252479,-0.16579246520996094,32.956741051748395,12.544266948806122,18.837256211474706,871,13,0.0,16399,128975312660820,11,38.7,55.01534652709961,0.04090000316500664,16,0.0,0.0,1561097980,,,,0,,5,1.13,32.7,,,,,,
Raw,1712576971437,14383802000000,18,,-1396597805635252479,-0.16579246520996094,32.956741051748395,12.544266948806122,18.837256211474706,871,27,0.0,16399,128975353871563,70,22.8,443.592041015625,0.9359999895095825,16,0.0,0.0,1561097980,,,,0,,5,1.13,16.8,,,,,,
Raw,1712576971437,14383802000000,18,,-1396597805635252479,-0.16579246520996094,32.956741051748395,12.544266948806122,18.837256211474706,871,29,0.0,16399,128975359967896,12,37.7,-293.3687438964844,0.02240000106394291,16,0.0,0.0,1561097980,,,,0,,5,1.13,31.700000000000003,,,,,,
Raw,1712576971437,14383802000000,18,,-1396597805635252479,-0.16579246520996094,32.956741051748395,12.544266948806122,18.837256211474706,871,30,0.0,16399,128975363570587,24,30.2,152.53187561035156,0.3862999975681305,16,0.0,0.0,1561097980,,,,0,,5,1.13,24.2,,,,,,
Raw,1712576971437,14383802000000,18,,-1396597805635252479,-0.16579246520996094,32.956741051748395,12.544266948806122,18.837256211474706,871,2,0.0,89103,128989359346023,19,32.9,-76.36853790283203,0.06980000436306,16,0.0,0.0,1575420030,,,,0,,6,0.38,26.9,,,,,,
Raw,1712576971437,14383802000000,18,,-1396597805635252479,-0.16579246520996094,32.956741051748395,12.544266948806122,18.837256211474706,871,11,0.0,89103,128989354807450,14,35.2,438.5879821777344,0.052800003439188004,16,0.0,0.0,1575420030,,,,0,,6,0.38,29.200000000000003,,,,,,
Raw,1712576971437,14383802000000,18,,-1396597805635252479,-0.16579246520996094,32.956741051748395,12.544266948806122,18.837256211474706,871,25,0.0,89103,128989354979105,12,37.6,406.5185546875,0.05090000107884407,16,0.0,0.0,1575420030,,,,0,,6,0.38,31.6,,,,,,
Raw,1712576971437,14383802000000,18,,-1396597805635252479,-0.16579246520996094,32.956741051748395,12.544266948806122,18.837256211474706,871,30,0.0,89103,128989348667027,19,32.1,-484.6771545410156,0.06530000269412994,16,0.0,0.0,1575420030,,,,0,,6,0.38,26.1,,,,,,
Raw,1712576971437,14383802000000,18,,-1396597805635252479,-0.16579246520996094,32.956741051748395,12.544266948806122,18.837256211474706,871,34,0.0,89103,128989352846099,10,39.2,-367.69195556640625,0.04609999805688858,16,0.0,0.0,1575420030,,,,0,,6,0.38,33.2,,,,,,
Raw,1712576971437,14383802000000,18,,-1396597805635252479,-0.16579246520996094,32.956741051748395,12.544266948806122,18.837256211474706,871,36,0.0,89103,128989359344440,61,23.3,69.70457458496094,0.875,16,0.0,0.0,1575420030,,,,0,,6,0.38,17.3,,,,,,
Fix,FLP,36.5452405000,29.1228812000,31.299999237060547,0.24755105,3.878,285.7999,1712576972450,0.10816654,45.0,13445116969286,8.281338,0,,,
Status,1712576972000,28,0,1,5,1575420030,36.50,52.0,28.0,1,1,1,31.5
Status,1712576972000,28,1,1,16,1575420030,32.90,316.0,15.0,0,1,1,27.9
Status,1712576972000,28,2,1,18,1575420030,42.30,272.0,78.0,1,1,1,37.3
Status,1712576972000,28,3,1,23,1575420030,42.60,168.0,28.0,1,1,1,37.6
Status,1712576972000,28,4,1,25,1575420030,41.90,149.0,28.0,1,1,1,36.9
Status,1712576972000,28,5,1,26,1575420030,39.80,302.0,47.0,1,1,1,34.8
Status,1712576972000,28,6,1,28,1575420030,40.00,227.0,19.0,1,1,1,35.0
Status,1712576972000,28,7,1,29,1575420030,42.90,59.0,51.0,1,1,1,37.9
Status,1712576972000,28,8,1,31,1575420030,38.70,258.0,26.0,1,1,1,33.7
Status,1712576972000,28,9,3,10,1602000000,36.90,191.0,46.0,0,1,0,31.9
Status,1712576972000,28,10,3,11,1602000000,39.40,296.0,56.0,1,1,1,34.4
Status,1712576972000,28,11,3,20,1602000000,27.90,25.0,41.0,1,1,0,22.9
Status,1712576972000,28,12,3,21,1602000000,40.30,292.0,50.0,1,1,1,35.3
Status,1712576972000,28,13,3,5,1602000000,0.00,85.0,16.0,0,1,0,0.0
Status,1712576972000,28,14,5,5,1561097980,43.70,135.0,37.0,1,1,0,38.7
Status,1712576972000,28,15,5,8,1561097980,38.00,40.0,35.0,1,1,1,33.0
Status,1712576972000,28,16,5,13,1561097980,41.70,52.0,46.0,1,1,1,36.7
Status,1712576972000,28,17,5,27,1561097980,28.80,64.0,19.0,0,1,1,23.8
Status,1712576972000,28,18,5,29,1561097980,39.70,279.0,41.0,1,1,1,34.7
Status,1712576972000,28,19,5,30,1561097980,44.80,23.0,62.0,1,1,1,39.8
Status,1712576972000,28,20,5,2,1561097980,0.00,111.0,19.0,0,1,0,0.0
Status,1712576972000,28,21,2,136,1575420030,40.70,0.0,0.0,0,0,0,35.7
Status,1712576972000,28,22,6,2,1575420030,41.80,286.0,75.0,1,1,0,36.8
Status,1712576972000,28,23,6,11,1575420030,36.10,42.0,33.0,1,1,1,31.1
Status,1712576972000,28,24,6,25,1575420030,45.60,150.0,45.0,1,1,0,40.6
Status,1712576972000,28,25,6,30,1575420030,42.30,316.0,22.0,1,1,0,37.3
Status,1712576972000,28,26,6,34,1575420030,43.00,236.0,37.0,1,1,0,38.0
Status,1712576972000,28,27,6,36,1575420030,40.60,343.0,80.0,1,1,0,35.6
Raw,1712576972437,14384802000000,18,,-1396597805635252466,-0.6190147399902344,59.200541727477685,12.544266948806122,29.579442926019215,872,10,0.0,49359,53372368700447,17,33.9,598.1862182617188,0.24530000984668732,16,0.0,0.0,1598062460,,,,0,,3,0.52,30.9,,,,,,
Raw,1712576972437,14384802000000,18,,-1396597805635252466,-0.6190147399902344,59.200541727477685,12.544266948806122,29.579442926019215,872,11,0.0,49359,53372370728336,13,36.4,-198.0033721923828,0.2401999980211258,16,0.0,0.0,1602000000,,,,0,,3,0.52,33.4,,,,,,
Raw,1712576972437,14384802000000,18,,-1396597805635252466,-0.6190147399902344,59.200541727477685,12.544266948806122,29.579442926019215,872,20,0.0,49359,53372367629327,53,24.9,434.15093994140625,1.2070000171661377,16,0.0,0.0,1603124990,,,,0,,3,0.52,21.9,,,,,,
Raw,1712576972437,14384802000000,18,,-1396597805635252466,-0.6190147399902344,59.200541727477685,12.544266948806122,29.579442926019215,872,21,0.0,49359,53372369587027,12,37.3,-148.94166564941406,0.23740001022815704,16,0.0,0.0,1604249980,,,,0,,3,0.52,34.3,,,,,,
Raw,1712576972437,14384802000000,18,,-1396597805635252466,-0.6190147399902344,59.200541727477685,12.544266948806122,29.579442926019215,872,5,0.0,81935,128990361035818,17,33.5,349.9478759765625,0.03480000048875809,16,0.0,0.0,1575420030,,,,0,,1,0.29,30.5,,,,,,
Raw,1712576972437,14384802000000,18,,-1396597805635252466,-0.6190147399902344,59.200541727477685,12.544266948806122,29.579442926019215,872,16,0.0,81935,128990357705853,42,29.9,-639.8815307617188,2.941999912261963,16,0.0,0.0,1575420030,,,,0,,1,0.29,26.9,,,,,,
Raw,1712576972437,14384802000000,18,,-1396597805635252466,-0.6190147399902344,59.200541727477685,12.544266948806122,29.579442926019215,872,18,0.0,81935,128990368744903,10,39.3,-67.04045104980469,0.0341000035405159,16,0.0,0.0,1575420030,,,,0,,1,0.29,36.3,,,,,,
Raw,1712576972437,14384802000000,18,,-1396597805635252466,-0.6190147399902344,59.200541727477685,12.544266948806122,29.579442926019215,872,23,0.0,81935,128990360654531,10,39.6,-643.609375,0.022099999710917473,16,0.0,0.0,1575420030,,,,0,,1,0.29,36.6,,,,,,
Raw,1712576972437,14384802000000,18,,-1396597805635252466,-0.6190147399902344,59.200541727477685,12.544266948806122,29.579442926019215,872,25,0.0,81935,128990360610953,11,38.9,656.0016479492188,0.02290000021457672,16,0.0,0.0,1575420030,,,,0,,1,0.29,35.9,,,,,,
Raw,1712576972437,14384802000000,18,,-1396597805635252466,-0.6190147399902344,59.200541727477685,12.544266948806122,29.579442926019215,872,26,0.0,81935,128990365957732,15,36.8,-335.5638732910156,1.1440000534057617,16,0.0,0.0,1575420030,,,,0,,1,0.29,33.8,,,,,,
Raw,1712576972437,14384802000000,18,,-1396597805635252466,-0.6190147399902344,59.200541727477685,12.544266948806122,29.579442926019215,872,28,0.0,81935,128990358160854,12,37.0,522.1588745117188,0.05090000107884407,16,0.0,0.0,1575420030,,,,0,,1,0.29,34.0,,,,,,
Raw,1712576972437,14384802000000,18,,-1396597805635252466,-0.6190147399902344,59.200541727477685,12.544266948806122,29.579442926019215,872,29,0.0,81935,128990365891860,10,39.9,234.7174835205078,0.029600000008940697,16,0.0,0.0,1575420030,,,,0,,1,0.29,36.9,,,,,,
Raw,1712576972437,14384802000000,18,,-1396597805635252466,-0.6190147399902344,59.200541727477685,12.544266948806122,29.579442926019215,872,31,0.0,81935,128990359688894,14,35.7,335.106689453125,0.024300001561641693,16,0.0,0.0,1575420030,,,,0,,1,0.29,32.7,,,,,,
Raw,1712576972437,14384802000000,18,,-1396597805635252466,-0.6190147399902344,59.200541727477685,12.544266948806122,29.579442926019215,872,5,0.0,16399,128976309671922,12,37.7,-6.66377067565918,5.490499973297119,16,0.0,0.0,1561097980,,,,0,,5,1.06,31.700000000000003,,,,,,
Raw,1712576972437,14384802000000,18,,-1396597805635252466,-0.6190147399902344,59.200541727477685,12.544266948806122,29.579442926019215,872,8,0.0,16399,128976309961977,19,32.0,127.66294860839844,0.05480000376701355,16,0.0,0.0,1561097980,,,,0,,5,1.06,26.0,,,,,,
Raw,1712576972437,14384802000000,18,,-1396597805635252466,-0.6190147399902344,59.200541727477685,12.544266948806122,29.579442926019215,872,13,0.0,16399,128976312660644,14,35.7,54.86838150024414,0.043800003826618195,16,0.0,0.0,1561097980,,,,0,,5,1.06,29.700000000000003,,,,,,
Raw,1712576972437,14384802000000,18,,-1396597805635252466,-0.6190147399902344,59.200541727477685,12.544266948806122,29.579442926019215,872,29,0.0,16399,128976359968861,17,33.7,-293.8205261230469,0.03180000185966492,16,0.0,0.0,1561097980,,,,0,,5,1.06,27.700000000000003,,,,,,
Raw,1712576972437,14384802000000,18,,-1396597805635252466,-0.6190147399902344,59.200541727477685,12.544266948806122,29.579442926019215,872,30,0.0,16399,128976363570088,11,38.8,152.42921447753906,0.027400001883506775,16,0.0,0.0,1561097980,,,,0,,5,1.06,32.8,,,,,,
Raw,1712576972437,14384802000000,18,,-1396597805635252466,-0.6190147399902344,59.200541727477685,12.544266948806122,29.579442926019215,872,2,0.0,89103,128990359346287,14,35.8,-76.48772430419922,0.05430000275373459,16,0.0,0.0,1575420030,,,,0,,6,0.27,29.799999999999997,,,,,,
Raw,1712576972437,14384802000000,18,,-1396597805635252466,-0.6190147399902344,59.200541727477685,12.544266948806122,29.579442926019215,872,11,0.0,89103,128990354806004,24,30.1,438.46124267578125,0.40880000591278076,16,0.0,0.0,1575420030,,,,0,,6,0.27,24.1,,,,,,
Raw,1712576972437,14384802000000,18,,-1396597805635252466,-0.6190147399902344,59.200541727477685,12.544266948806122,29.579442926019215,872,25,0.0,89103,128990354977746,10,39.6,406.40673828125,0.04910000413656235,16,0.0,0.0,1575420030,,,,0,,6,0.27,33.6,,,,,,
Raw,1712576972437,14384802000000,18,,-1396597805635252466,-0.6190147399902344,59.200541727477685,12.544266948806122,29.579442926019215,872,30,0.0,89103,128990348668634,13,36.3,-485.052490234375,0.04919999837875366,16,0.0,0.0,1575420030,,,,0,,6,0.27,30.299999999999997,,,,,,
Raw,1712576972437,14384802000000,18,,-1396597805635252466,-0.6190147399902344,59.200541727477685,12.544266948806122,29.579442926019215,872,34,0.0,89103,128990352847328,12,37.0,-368.19287109375,0.0478999987244606,16,0.0,0.0,1575420030,,,,0,,6,0.27,31.0,,,,,,
Raw,1712576972437,14384802000000,18,,-1396597805635252466,-0.6190147399902344,59.200541727477685,12.544266948806122,29.579442926019215,872,36,0.0,89103,128990359344190,16,34.6,69.51248168945312,0.0552000030875206,16,0.0,0.0,1575420030,,,,0,,6,0.27,28.6,,,,,,
Fix,GPS,36.5452409800,29.1228764800,20.3968505859375,0.24,3.7900925,276.2,1712576973000,0.84599054,85.991295,13446139369754,3.0,0,,,
Fix,FLP,36.5452410000,29.1228767000,31.299999237060547,0.24071959,3.878,275.99402,1712576973473,0.84599054,85.991295,13446139369754,8.291562,0,,,
Status,1712576973000,28,0,1,5,1575420030,27.10,52.0,28.0,1,1,1,22.1
Status,1712576973000,28,1,1,16,1575420030,33.50,316.0,15.0,1,1,1,28.5
Status,1712576973000,28,2,1,18,1575420030,35.80,272.0,78.0,1,1,1,30.8
Status,1712576973000,28,3,1,23,1575420030,45.10,168.0,28.0,1,1,1,40.1
Status,1712576973000,28,4,1,25,1575420030,44.60,149.0,28.0,1,1,1,39.6
Status,1712576973000,28,5,1,26,1575420030,44.10,302.0,47.0,1,1,1,39.1
Status,1712576973000,28,6,1,28,1575420030,42.60,227.0,19.0,1,1,1,37.6
Status,1712576973000,28,7,1,29,1575420030,41.20,59.0,51.0,1,1,1,36.2
Status,1712576973000,28,8,1,31,1575420030,36.50,258.0,26.0,1,1,1,31.5
Status,1712576973000,28,9,3,10,1602000000,31.30,191.0,46.0,0,1,0,26.3
Status,1712576973000,28,10,3,11,1602000000,42.10,296.0,56.0,1,1,1,37.1
Status,1712576973000,28,11,3,20,1602000000,27.90,25.0,41.0,1,1,0,22.9
Status,1712576973000,28,12,3,21,1602000000,42.20,292.0,50.0,1,1,1,37.2
Status,1712576973000,28,13,3,5,1602000000,0.00,85.0,16.0,0,1,0,0.0
Status,1712576973000,28,14,5,5,1561097980,45.50,135.0,37.0,1,1,0,40.5
Status,1712576973000,28,15,5,8,1561097980,33.90,40.0,35.0,1,1,1,28.9
Status,1712576973000,28,16,5,13,1561097980,39.10,52.0,46.0,1,1,1,34.1
Status,1712576973000,28,17,5,27,1561097980,28.80,64.0,19.0,0,1,1,23.8
Status,1712576973000,28,18,5,29,1561097980,42.10,279.0,41.0,1,1,1,37.1
Status,1712576973000,28,19,5,30,1561097980,42.30,23.0,62.0,1,1,1,37.3
Status,1712576973000,28,20,5,2,1561097980,0.00,111.0,19.0,0,1,0,0.0
Status,1712576973000,28,21,2,136,1575420030,42.00,0.0,0.0,0,0,0,37.0
Status,1712576973000,28,22,6,2,1575420030,35.40,286.0,75.0,1,1,0,30.4
Status,1712576973000,28,23,6,11,1575420030,31.30,42.0,33.0,1,1,1,26.3
Status,1712576973000,28,24,6,25,1575420030,49.10,150.0,45.0,1,1,0,44.1
Status,1712576973000,28,25,6,30,1575420030,41.90,316.0,22.0,1,1,0,36.9
Status,1712576973000,28,26,6,34,1575420030,40.10,236.0,37.0,1,1,0,35.1
Status,1712576973000,28,27,6,36,1575420030,39.60,343.0,80.0,1,1,0,34.6
Raw,1712576973437,14385802000000,18,,-1396597805635252504,-0.22954559326171875,25.874043785734102,-6.970881710356029,13.269738539835156,872,10,0.0,49359,53373368698450,31,28.3,599.3738403320312,0.9384999871253967,16,0.0,0.0,1598062460,,,,0,,3,0.72,25.3,,,,,,
Raw,1712576973437,14385802000000,18,,-1396597805635252504,-0.22954559326171875,25.874043785734102,-6.970881710356029,13.269738539835156,872,11,0.0,49359,53373370729003,10,39.1,-197.40487670898438,0.2371000051498413,16,0.0,0.0,1602000000,,,,0,,3,0.72,36.1,,,,,,
Raw,1712576973437,14385802000000,18,,-1396597805635252504,-0.22954559326171875,25.874043785734102,-6.970881710356029,13.269738539835156,872,21,0.0,49359,53373369587525,10,39.2,-148.2034149169922,0.23560000956058502,16,0.0,0.0,1604249980,,,,0,,3,0.72,36.2,,,,,,
Raw,1712576973437,14385802000000,18,,-1396597805635252504,-0.22954559326171875,25.874043785734102,-6.970881710356029,13.269738539835156,872,5,0.0,81935,128991361034745,53,24.1,351.453369140625,0.9980000257492065,16,0.0,0.0,1575420030,,,,0,,1,0.47,21.1,,,,,,
Raw,1712576973437,14385802000000,18,,-1396597805635252504,-0.22954559326171875,25.874043785734102,-6.970881710356029,13.269738539835156,872,16,0.0,81935,128991357707956,24,30.5,-639.3341674804688,0.4072999954223633,16,0.0,0.0,1575420030,,,,0,,1,0.47,27.5,,,,,,
Raw,1712576973437,14385802000000,18,,-1396597805635252504,-0.22954559326171875,25.874043785734102,-6.970881710356029,13.269738539835156,872,18,0.0,81935,128991368745138,19,32.8,-66.67662811279297,0.053300000727176666,16,0.0,0.0,1575420030,,,,0,,1,0.47,29.799999999999997,,,,,,
Raw,1712576973437,14385802000000,18,,-1396597805635252504,-0.22954559326171875,25.874043785734102,-6.970881710356029,13.269738539835156,872,23,0.0,81935,128991360656649,7,42.1,-643.15234375,0.020600000396370888,16,0.0,0.0,1575420030,,,,0,,1,0.47,39.1,,,,,,
Raw,1712576973437,14385802000000,18,,-1396597805635252504,-0.22954559326171875,25.874043785734102,-6.970881710356029,13.269738539835156,872,25,0.0,81935,128991360608761,8,41.6,656.4999389648438,0.021199999377131462,16,0.0,0.0,1575420030,,,,0,,1,0.47,38.6,,,,,,
Raw,1712576973437,14385802000000,18,,-1396597805635252504,-0.22954559326171875,25.874043785734102,-6.970881710356029,13.269738539835156,872,26,0.0,81935,128991365958859,8,41.1,-335.10284423828125,0.028699999675154686,16,0.0,0.0,1575420030,,,,0,,1,0.47,38.1,,,,,,
Raw,1712576973437,14385802000000,18,,-1396597805635252504,-0.22954559326171875,25.874043785734102,-6.970881710356029,13.269738539835156,872,28,0.0,81935,128991358159125,10,39.6,522.7766723632812,0.04910000413656235,16,0.0,0.0,1575420030,,,,0,,1,0.47,36.6,,,,,,
Raw,1712576973437,14385802000000,18,,-1396597805635252504,-0.22954559326171875,25.874043785734102,-6.970881710356029,13.269738539835156,872,29,0.0,81935,128991365891080,11,38.2,234.9927215576172,0.030400000512599945,16,0.0,0.0,1575420030,,,,0,,1,0.47,35.2,,,,,,
Raw,1712576973437,14385802000000,18,,-1396597805635252504,-0.22954559326171875,25.874043785734102,-6.970881710356029,13.269738539835156,872,31,0.0,81935,128991359687780,17,33.5,336.05511474609375,0.03180000185966492,16,0.0,0.0,1575420030,,,,0,,1,0.47,30.5,,,,,,
Raw,1712576973437,14385802000000,18,,-1396597805635252504,-0.22954559326171875,25.874043785734102,-6.970881710356029,13.269738539835156,872,5,0.0,16399,128977309671946,10,39.5,-7.182277202606201,5.108099937438965,16,0.0,0.0,1561097980,,,,0,,5,1.42,33.5,,,,,,
Raw,1712576973437,14385802000000,18,,-1396597805635252504,-0.22954559326171875,25.874043785734102,-6.970881710356029,13.269738539835156,872,8,0.0,16399,128977309961553,35,27.9,127.5910415649414,0.6299999952316284,16,0.0,0.0,1561097980,,,,0,,5,1.42,21.9,,,,,,
Raw,1712576973437,14385802000000,18,,-1396597805635252504,-0.22954559326171875,25.874043785734102,-6.970881710356029,13.269738539835156,872,13,0.0,16399,128977312660457,17,33.1,55.12873840332031,0.05130000412464142,16,0.0,0.0,1561097980,,,,0,,5,1.42,27.1,,,,,,
Raw,1712576973437,14385802000000,18,,-1396597805635252504,-0.22954559326171875,25.874043785734102,-6.970881710356029,13.269738539835156,872,29,0.0,16399,128977359969833,13,36.1,-293.22991943359375,0.02370000071823597,16,0.0,0.0,1561097980,,,,0,,5,1.42,30.1,,,,,,
Raw,1712576973437,14385802000000,18,,-1396597805635252504,-0.22954559326171875,25.874043785734102,-6.970881710356029,13.269738539835156,872,30,0.0,16399,128977363569584,13,36.3,152.75694274902344,0.02970000170171261,16,0.0,0.0,1561097980,,,,0,,5,1.42,30.299999999999997,,,,,,
Raw,1712576973437,14385802000000,18,,-1396597805635252504,-0.22954559326171875,25.874043785734102,-6.970881710356029,13.269738539835156,872,2,0.0,89103,128991359346522,27,29.4,-75.9937744140625,0.5550000071525574,16,0.0,0.0,1575420030,,,,0,,6,0.44,23.4,,,,,,
Raw,1712576973437,14385802000000,18,,-1396597805635252504,-0.22954559326171875,25.874043785734102,-6.970881710356029,13.269738539835156,872,11,0.0,89103,128991354804527,46,25.3,438.28436279296875,0.7534999847412109,16,0.0,0.0,1575420030,,,,0,,6,0.44,19.3,,,,,,
Raw,1712576973437,14385802000000,18,,-1396597805635252504,-0.22954559326171875,25.874043785734102,-6.970881710356029,13.269738539835156,872,25,0.0,89103,128991354976392,6,43.1,406.752197265625,0.0471000038087368,16,0.0,0.0,1575420030,,,,0,,6,0.44,37.1,,,,,,
Raw,1712576973437,14385802000000,18,,-1396597805635252504,-0.22954559326171875,25.874043785734102,-6.970881710356029,13.269738539835156,872,30,0.0,89103,128991348670263,14,35.9,-484.52337646484375,0.049800001084804535,16,0.0,0.0,1575420030,,,,0,,6,0.44,29.9,,,,,,
Raw,1712576973437,14385802000000,18,,-1396597805635252504,-0.22954559326171875,25.874043785734102,-6.970881710356029,13.269738539835156,872,34,0.0,89103,128991352848563,16,34.1,-367.4306640625,0.050700001418590546,16,0.0,0.0,1575420030,,,,0,,6,0.44,28.1,,,,,,
Raw,1712576973437,14385802000000,18,,-1396597805635252504,-0.22954559326171875,25.874043785734102,-6.970881710356029,13.269738539835156,872,36,0.0,89103,128991359343969,17,33.6,69.7937240600586,0.06180000305175781,16,0.0,0.0,1575420030,,,,0,,6,0.44,27.6,,,,,,
Fix,GPS,36.5452438000,29.1228732000,20.9393310546875,0.0,3.7900925,,1712576974000,0.086023256,,13447132216108,3.0,0,,,
Fix,FLP,36.5452434000,29.1228733000,31.299999237060547,0.24155709,3.9,276.1148,1712576974465,0.086023256,45.0,13447132216108,8.301491,0,,,
Status,1712576974000,28,0,1,5,1575420030,27.10,52.0,28.0,1,1,1,22.1
Status,1712576974000,28,1,1,16,1575420030,27.40,316.0,15.0,1,1,1,22.4
Status,1712576974000,28,2,1,18,1575420030,35.50,272.0,78.0,1,1,1,30.5
Status,1712576974000,28,3,1,23,1575420030,43.90,168.0,28.0,1,1,1,38.9
Status,1712576974000,28,4,1,25,1575420030,38.80,149.0,28.0,1,1,1,33.8
Status,1712576974000,28,5,1,26,1575420030,36.20,302.0,47.0,1,1,1,31.2
Status,1712576974000,28,6,1,28,1575420030,36.40,227.0,19.0,1,1,1,31.4
Status,1712576974000,28,7,1,29,1575420030,38.20,59.0,51.0,1,1,1,33.2
Status,1712576974000,28,8,1,31,1575420030,33.50,258.0,26.0,1,1,1,28.5
Status,1712576974000,28,9,3,10,1602000000,31.90,191.0,46.0,0,1,0,26.9
Status,1712576974000,28,10,3,11,1602000000,35.90,296.0,56.0,1,1,1,30.9
Status,1712576974000,28,11,3,20,1602000000,27.90,25.0,41.0,1,1,0,22.9
Status,1712576974000,28,12,3,21,1602000000,38.20,292.0,50.0,1,1,1,33.2
Status,1712576974000,28,13,3,5,1602000000,0.00,85.0,16.0,0,1,0,0.0
Status,1712576974000,28,14,5,5,1561097980,43.50,135.0,37.0,1,1,0,38.5
Status,1712576974000,28,15,5,8,1561097980,31.80,40.0,35.0,1,1,1,26.8
Status,1712576974000,28,16,5,13,1561097980,35.70,52.0,46.0,1,1,1,30.7
Status,1712576974000,28,17,5,27,1561097980,28.80,64.0,19.0,0,1,1,23.8
Status,1712576974000,28,18,5,29,1561097980,39.50,279.0,41.0,1,1,1,34.5
Status,1712576974000,28,19,5,30,1561097980,39.80,23.0,62.0,1,1,1,34.8
Status,1712576974000,28,20,5,2,1561097980,0.00,111.0,19.0,0,1,0,0.0
Status,1712576974000,28,21,2,136,1575420030,37.80,0.0,0.0,0,0,0,32.8
Status,1712576974000,28,22,6,2,1575420030,41.10,286.0,75.0,1,1,0,36.1
Status,1712576974000,28,23,6,11,1575420030,29.10,42.0,33.0,1,1,1,24.1
Status,1712576974000,28,24,6,25,1575420030,48.00,150.0,45.0,1,1,0,43.0
Status,1712576974000,28,25,6,30,1575420030,35.90,316.0,22.0,1,1,0,30.9
Status,1712576974000,28,26,6,34,1575420030,34.00,236.0,37.0,1,1,0,29.0
Status,1712576974000,28,27,6,36,1575420030,40.70,343.0,80.0,1,1,0,35.7
Raw,1712576974437,14386802000000,18,,-1396597805635252505,-0.6302547454833984,23.3640839724103,-4.059020562189854,11.771182017448124,872,10,0.0,49359,53374368696421,31,28.9,598.8204345703125,0.9384999871253967,16,0.0,0.0,1598062460,,,,0,,3,0.56,25.9,,,,,,
Raw,1712576974437,14386802000000,18,,-1396597805635252505,-0.6302547454833984,23.3640839724103,-4.059020562189854,11.771182017448124,872,11,0.0,49359,53374370729664,19,32.9,-197.43663024902344,0.2563000023365021,16,0.0,0.0,1602000000,,,,0,,3,0.56,29.9,,,,,,
Raw,1712576974437,14386802000000,18,,-1396597805635252505,-0.6302547454833984,23.3640839724103,-4.059020562189854,11.771182017448124,872,21,0.0,49359,53374369588039,14,35.2,-148.2310791015625,0.23929999768733978,16,0.0,0.0,1604249980,,,,0,,3,0.56,32.2,,,,,,
Raw,1712576974437,14386802000000,18,,-1396597805635252505,-0.6302547454833984,23.3640839724103,-4.059020562189854,11.771182017448124,872,5,0.0,81935,128992361033427,53,24.1,349.6360778808594,0.9980000257492065,16,0.0,0.0,1575420030,,,,0,,1,0.34,21.1,,,,,,
Raw,1712576974437,14386802000000,18,,-1396597805635252505,-0.6302547454833984,23.3640839724103,-4.059020562189854,11.771182017448124,872,16,0.0,81935,128992357710005,53,24.4,-640.1383666992188,1.0220000743865967,16,0.0,0.0,1575420030,,,,0,,1,0.34,21.4,,,,,,
Raw,1712576974437,14386802000000,18,,-1396597805635252505,-0.6302547454833984,23.3640839724103,-4.059020562189854,11.771182017448124,872,18,0.0,81935,128992368745358,19,32.5,-66.91799926757812,0.053300000727176666,16,0.0,0.0,1575420030,,,,0,,1,0.34,29.5,,,,,,
Raw,1712576974437,14386802000000,18,,-1396597805635252505,-0.6302547454833984,23.3640839724103,-4.059020562189854,11.771182017448124,872,23,0.0,81935,128992360658817,9,40.9,-643.360107421875,0.02160000056028366,16,0.0,0.0,1575420030,,,,0,,1,0.34,37.9,,,,,,
Raw,1712576974437,14386802000000,18,,-1396597805635252505,-0.6302547454833984,23.3640839724103,-4.059020562189854,11.771182017448124,872,25,0.0,81935,128992360606566,14,35.8,656.2650756835938,0.025800000876188278,16,0.0,0.0,1575420030,,,,0,,1,0.34,32.8,,,,,,
Raw,1712576974437,14386802000000,18,,-1396597805635252505,-0.6302547454833984,23.3640839724103,-4.059020562189854,11.771182017448124,872,26,0.0,81935,128992365959975,17,33.2,-335.2231140136719,0.04079999774694443,16,0.0,0.0,1575420030,,,,0,,1,0.34,30.200000000000003,,,,,,
Raw,1712576974437,14386802000000,18,,-1396597805635252505,-0.6302547454833984,23.3640839724103,-4.059020562189854,11.771182017448124,872,28,0.0,81935,128992358157374,17,33.4,522.7459106445312,0.06030000001192093,16,0.0,0.0,1575420030,,,,0,,1,0.34,30.4,,,,,,
Raw,1712576974437,14386802000000,18,,-1396597805635252505,-0.6302547454833984,23.3640839724103,-4.059020562189854,11.771182017448124,872,29,0.0,81935,128992365890283,14,35.2,234.8069610595703,0.0333000011742115,16,0.0,0.0,1575420030,,,,0,,1,0.34,32.2,,,,,,
Raw,1712576974437,14386802000000,18,,-1396597805635252505,-0.6302547454833984,23.3640839724103,-4.059020562189854,11.771182017448124,872,31,0.0,81935,128992359686663,24,30.5,335.991943359375,0.38029998540878296,16,0.0,0.0,1575420030,,,,0,,1,0.34,27.5,,,,,,
Raw,1712576974437,14386802000000,18,,-1396597805635252505,-0.6302547454833984,23.3640839724103,-4.059020562189854,11.771182017448124,872,5,0.0,16399,128978309671978,12,37.5,-8.123270034790039,5.490499973297119,16,0.0,0.0,1561097980,,,,0,,5,1.16,31.5,,,,,,
Raw,1712576974437,14386802000000,18,,-1396597805635252505,-0.6302547454833984,23.3640839724103,-4.059020562189854,11.771182017448124,872,8,0.0,16399,128978309961118,46,25.8,128.00392150878906,0.7400000095367432,16,0.0,0.0,1561097980,,,,0,,5,1.16,19.8,,,,,,
Raw,1712576974437,14386802000000,18,,-1396597805635252505,-0.6302547454833984,23.3640839724103,-4.059020562189854,11.771182017448124,872,13,0.0,16399,128978312660266,27,29.7,54.74085998535156,0.5444999933242798,16,0.0,0.0,1561097980,,,,0,,5,1.16,23.7,,,,,,
Raw,1712576974437,14386802000000,18,,-1396597805635252505,-0.6302547454833984,23.3640839724103,-4.059020562189854,11.771182017448124,872,29,0.0,16399,128978359970820,17,33.5,-293.38580322265625,0.03180000185966492,16,0.0,0.0,1561097980,,,,0,,5,1.16,27.5,,,,,,
Raw,1712576974437,14386802000000,18,,-1396597805635252505,-0.6302547454833984,23.3640839724103,-4.059020562189854,11.771182017448124,872,30,0.0,16399,128978363569070,17,33.8,152.6007843017578,0.03779999911785126,16,0.0,0.0,1561097980,,,,0,,5,1.16,27.799999999999997,,,,,,
Raw,1712576974437,14386802000000,18,,-1396597805635252505,-0.6302547454833984,23.3640839724103,-4.059020562189854,11.771182017448124,872,2,0.0,89103,128992359346799,14,35.1,-76.32233428955078,0.05430000275373459,16,0.0,0.0,1575420030,,,,0,,6,0.33,29.1,,,,,,
Raw,1712576974437,14386802000000,18,,-1396597805635252505,-0.6302547454833984,23.3640839724103,-4.059020562189854,11.771182017448124,872,11,0.0,89103,128992354803071,61,23.1,437.6944885253906,0.8734999895095825,16,0.0,0.0,1575420030,,,,0,,6,0.33,17.1,,,,,,
Raw,1712576974437,14386802000000,18,,-1396597805635252505,-0.6302547454833984,23.3640839724103,-4.059020562189854,11.771182017448124,872,25,0.0,89103,128992354975040,7,42.0,406.52545166015625,0.047600001096725464,16,0.0,0.0,1575420030,,,,0,,6,0.33,36.0,,,,,,
Raw,1712576974437,14386802000000,18,,-1396597805635252505,-0.6302547454833984,23.3640839724103,-4.059020562189854,11.771182017448124,872,30,0.0,89103,128992348671876,27,29.9,-484.66845703125,0.5504999756813049,16,0.0,0.0,1575420030,,,,0,,6,0.33,23.9,,,,,,
Raw,1712576974437,14386802000000,18,,-1396597805635252505,-0.6302547454833984,23.3640839724103,-4.059020562189854,11.771182017448124,872,34,0.0,89103,128992352849796,31,28.0,-367.6473693847656,0.6004999876022339,16,0.0,0.0,1575420030,,,,0,,6,0.33,22.0,,,,,,
Raw,1712576974437,14386802000000,18,,-1396597805635252505,-0.6302547454833984,23.3640839724103,-4.059020562189854,11.771182017448124,872,36,0.0,89103,128992359343730,16,34.7,69.5384521484375,0.0552000030875206,16,0.0,0.0,1575420030,,,,0,,6,0.33,28.700000000000003,,,,,,
Fix,GPS,36.5452451000,29.1228710000,21.19549560546875,0.0,3.7900925,,1712576975000,0.086023256,,13448134680118,3.0,0,,,
Fix,FLP,36.5452450000,29.1228710000,31.299999237060547,0.24618472,3.9,293.71097,1712576975467,0.086023256,45.0,13448134680118,8.311515,0,,,
Status,1712576975000,28,0,1,5,1575420030,26.70,52.0,28.0,1,1,1,21.7
Status,1712576975000,28,1,1,16,1575420030,27.00,316.0,15.0,1,1,1,22.0
Status,1712576975000,28,2,1,18,1575420030,38.80,272.0,78.0,1,1,1,33.8
Status,1712576975000,28,3,1,23,1575420030,43.90,168.0,28.0,1,1,1,38.9
Status,1712576975000,28,4,1,25,1575420030,38.40,149.0,28.0,1,1,1,33.4
Status,1712576975000,28,5,1,26,1575420030,37.00,302.0,47.0,1,1,1,32.0
Status,1712576975000,28,6,1,28,1575420030,32.40,227.0,19.0,1,1,1,27.4
Status,1712576975000,28,7,1,29,1575420030,36.70,59.0,51.0,1,1,1,31.7
Status,1712576975000,28,8,1,31,1575420030,25.70,258.0,26.0,1,1,1,20.7
Status,1712576975000,28,9,3,10,1602000000,28.10,191.0,46.0,0,1,0,23.1
Status,1712576975000,28,10,3,11,1602000000,36.40,296.0,56.0,1,1,1,31.4
Status,1712576975000,28,11,3,20,1602000000,27.90,25.0,41.0,1,1,0,22.9
Status,1712576975000,28,12,3,21,1602000000,36.80,292.0,50.0,1,1,1,31.8
Status,1712576975000,28,13,3,5,1602000000,0.00,85.0,16.0,0,1,0,0.0
Status,1712576975000,28,14,5,5,1561097980,42.10,135.0,37.0,1,1,0,37.1
Status,1712576975000,28,15,5,8,1561097980,31.80,40.0,35.0,1,1,1,26.8
Status,1712576975000,28,16,5,13,1561097980,34.00,52.0,46.0,1,1,1,29.0
Status,1712576975000,28,17,5,27,1561097980,28.80,64.0,19.0,0,1,1,23.8
Status,1712576975000,28,18,5,29,1561097980,34.70,279.0,41.0,1,1,1,29.7
Status,1712576975000,28,19,5,30,1561097980,36.20,23.0,62.0,1,1,1,31.2
Status,1712576975000,28,20,5,2,1561097980,0.00,111.0,19.0,0,1,0,0.0
Status,1712576975000,28,21,2,136,1575420030,37.80,0.0,0.0,0,0,0,32.8
Status,1712576975000,28,22,6,2,1575420030,42.20,286.0,75.0,1,1,0,37.2
Status,1712576975000,28,23,6,11,1575420030,29.10,42.0,33.0,1,1,1,24.1
Status,1712576975000,28,24,6,25,1575420030,44.90,150.0,45.0,1,1,0,39.9
Status,1712576975000,28,25,6,30,1575420030,31.70,316.0,22.0,1,1,0,26.7
Status,1712576975000,28,26,6,34,1575420030,30.90,236.0,37.0,1,1,0,25.9
Status,1712576975000,28,27,6,36,1575420030,40.20,343.0,80.0,1,1,0,35.2
Raw,1712576975437,14387802000000,18,,-1396597805635252511,-0.6503238677978516,31.149415008258075,-4.983093145596547,17.54537355632218,872,10,0.0,49359,53375368694343,46,25.1,596.1096801757812,1.128499984741211,16,0.0,0.0,1598062460,,,,0,,3,0.49,22.1,,,,,,
Raw,1712576975437,14387802000000,18,,-1396597805635252511,-0.6503238677978516,31.149415008258075,-4.983093145596547,17.54537355632218,872,11,0.0,49359,53375370730377,17,33.4,-200.2489776611328,0.2483000010251999,16,0.0,0.0,1602000000,,,,0,,3,0.49,30.4,,,,,,
Raw,1712576975437,14387802000000,18,,-1396597805635252511,-0.6503238677978516,31.149415008258075,-4.983093145596547,17.54537355632218,872,21,0.0,49359,53375369588510,17,33.8,-150.4615936279297,0.2468000054359436,16,0.0,0.0,1604249980,,,,0,,3,0.49,30.799999999999997,,,,,,
Raw,1712576975437,14387802000000,18,,-1396597805635252511,-0.6503238677978516,31.149415008258075,-4.983093145596547,17.54537355632218,872,5,0.0,81935,128993361032374,61,23.7,348.30401611328125,1.0779999494552612,16,0.0,0.0,1575420030,,,,0,,1,0.34,20.7,,,,,,
Raw,1712576975437,14387802000000,18,,-1396597805635252511,-0.6503238677978516,31.149415008258075,-4.983093145596547,17.54537355632218,872,16,0.0,81935,128993357712254,53,24.0,-642.1174926757812,1.0220000743865967,16,0.0,0.0,1575420030,,,,0,,1,0.34,21.0,,,,,,
Raw,1712576975437,14387802000000,18,,-1396597805635252511,-0.6503238677978516,31.149415008258075,-4.983093145596547,17.54537355632218,872,18,0.0,81935,128993368745590,14,35.8,-69.05963134765625,0.037800002843141556,16,0.0,0.0,1575420030,,,,0,,1,0.34,32.8,,,,,,
Raw,1712576975437,14387802000000,18,,-1396597805635252511,-0.6503238677978516,31.149415008258075,-4.983093145596547,17.54537355632218,872,23,0.0,81935,128993360660978,9,40.9,-645.5193481445312,0.02160000056028366,16,0.0,0.0,1575420030,,,,0,,1,0.34,37.9,,,,,,
Raw,1712576975437,14387802000000,18,,-1396597805635252511,-0.6503238677978516,31.149415008258075,-4.983093145596547,17.54537355632218,872,25,0.0,81935,128993360604384,14,35.4,654.190185546875,0.025800000876188278,16,0.0,0.0,1575420030,,,,0,,1,0.34,32.4,,,,,,
Raw,1712576975437,14387802000000,18,,-1396597805635252511,-0.6503238677978516,31.149415008258075,-4.983093145596547,17.54537355632218,872,26,0.0,81935,128993365961128,16,34.0,-337.34344482421875,0.03420000150799751,16,0.0,0.0,1575420030,,,,0,,1,0.34,31.0,,,,,,
Raw,1712576975437,14387802000000,18,,-1396597805635252511,-0.6503238677978516,31.149415008258075,-4.983093145596547,17.54537355632218,872,28,0.0,81935,128993358155686,27,29.4,520.95751953125,0.6934999823570251,16,0.0,0.0,1575420030,,,,0,,1,0.34,26.4,,,,,,
Raw,1712576975437,14387802000000,18,,-1396597805635252511,-0.6503238677978516,31.149415008258075,-4.983093145596547,17.54537355632218,872,29,0.0,81935,128993365889527,17,33.7,232.58871459960938,0.04079999774694443,16,0.0,0.0,1575420030,,,,0,,1,0.34,30.700000000000003,,,,,,
Raw,1712576975437,14387802000000,18,,-1396597805635252511,-0.6503238677978516,31.149415008258075,-4.983093145596547,17.54537355632218,872,31,0.0,81935,128993359685622,70,22.7,334.7455749511719,1.1649999618530273,16,0.0,0.0,1575420030,,,,0,,1,0.34,19.7,,,,,,
Raw,1712576975437,14387802000000,18,,-1396597805635252511,-0.6503238677978516,31.149415008258075,-4.983093145596547,17.54537355632218,872,5,0.0,16399,128979309671992,13,36.1,-9.697994232177734,5.928799629211426,16,0.0,0.0,1561097980,,,,0,,5,1.02,30.1,,,,,,
Raw,1712576975437,14387802000000,18,,-1396597805635252511,-0.6503238677978516,31.149415008258075,-4.983093145596547,17.54537355632218,872,13,0.0,16399,128979312660101,31,28.0,52.41718292236328,0.5945000052452087,16,0.0,0.0,1561097980,,,,0,,5,1.02,22.0,,,,,,
Raw,1712576975437,14387802000000,18,,-1396597805635252511,-0.6503238677978516,31.149415008258075,-4.983093145596547,17.54537355632218,872,29,0.0,16399,128979359971802,31,28.7,-296.1537170410156,0.574999988079071,16,0.0,0.0,1561097980,,,,0,,5,1.02,22.7,,,,,,
Raw,1712576975437,14387802000000,18,,-1396597805635252511,-0.6503238677978516,31.149415008258075,-4.983093145596547,17.54537355632218,872,30,0.0,16399,128979363568567,24,30.2,150.75100708007812,0.5009999871253967,16,0.0,0.0,1561097980,,,,0,,5,1.02,24.2,,,,,,
Raw,1712576975437,14387802000000,18,,-1396597805635252511,-0.6503238677978516,31.149415008258075,-4.983093145596547,17.54537355632218,872,2,0.0,89103,128993359347057,13,36.2,-78.58629608154297,0.053700000047683716,16,0.0,0.0,1575420030,,,,0,,6,0.27,30.200000000000003,,,,,,
Raw,1712576975437,14387802000000,18,,-1396597805635252511,-0.6503238677978516,31.149415008258075,-4.983093145596547,17.54537355632218,872,25,0.0,89103,128993354973680,11,38.9,404.2429504394531,0.04990000277757645,16,0.0,0.0,1575420030,,,,0,,6,0.27,32.9,,,,,,
Raw,1712576975437,14387802000000,18,,-1396597805635252511,-0.6503238677978516,31.149415008258075,-4.983093145596547,17.54537355632218,872,30,0.0,89103,128993348673528,46,25.7,-486.5619201660156,0.750499963760376,16,0.0,0.0,1575420030,,,,0,,6,0.27,19.7,,,,,,
Raw,1712576975437,14387802000000,18,,-1396597805635252511,-0.6503238677978516,31.149415008258075,-4.983093145596547,17.54537355632218,872,34,0.0,89103,128993352851013,53,24.9,-368.7225341796875,0.8104999661445618,16,0.0,0.0,1575420030,,,,0,,6,0.27,18.9,,,,,,
Raw,1712576975437,14387802000000,18,,-1396597805635252511,-0.6503238677978516,31.149415008258075,-4.983093145596547,17.54537355632218,872,36,0.0,89103,128993359343516,16,34.2,67.22099304199219,0.0552000030875206,16,0.0,0.0,1575420030,,,,0,,6,0.27,28.200000000000003,,,,,,
Fix,GPS,36.5452457000,29.1228693700,21.37762451171875,0.0,3.7900925,,1712576976000,0.086023256,,13449142990899,3.0,0,,,
Fix,FLP,36.5452457000,29.1228693000,31.299999237060547,0.1983086,3.9,296.55212,1712576976476,0.086023256,45.0,13449142990899,8.321598,0,,,
Status,1712576976000,28,0,1,5,1575420030,27.90,52.0,28.0,1,1,1,22.9
Status,1712576976000,28,1,1,16,1575420030,28.60,316.0,15.0,1,1,1,23.6
Status,1712576976000,28,2,1,18,1575420030,42.90,272.0,78.0,1,1,1,37.9
Status,1712576976000,28,3,1,23,1575420030,44.10,168.0,28.0,1,1,1,39.1
Status,1712576976000,28,4,1,25,1575420030,42.80,149.0,28.0,1,1,1,37.8
Status,1712576976000,28,5,1,26,1575420030,31.40,302.0,47.0,1,1,1,26.4
Status,1712576976000,28,6,1,28,1575420030,29.50,227.0,19.0,1,1,1,24.5
Status,1712576976000,28,7,1,29,1575420030,35.90,59.0,51.0,1,1,1,30.9
Status,1712576976000,28,8,1,31,1575420030,31.50,258.0,26.0,1,1,1,26.5
Status,1712576976000,28,9,3,10,1602000000,29.20,191.0,46.0,0,1,0,24.2
Status,1712576976000,28,10,3,11,1602000000,35.70,296.0,56.0,1,1,1,30.7
Status,1712576976000,28,11,3,20,1602000000,27.90,25.0,41.0,1,1,0,22.9
Status,1712576976000,28,12,3,21,1602000000,34.20,292.0,50.0,1,1,1,29.2
Status,1712576976000,28,13,3,5,1602000000,0.00,85.0,16.0,0,1,0,0.0
Status,1712576976000,28,14,5,5,1561097980,42.20,135.0,37.0,1,1,0,37.2
Status,1712576976000,28,15,5,8,1561097980,27.20,40.0,35.0,1,1,1,22.2
Status,1712576976000,28,16,5,13,1561097980,34.40,52.0,46.0,1,1,1,29.4
Status,1712576976000,28,17,5,27,1561097980,28.80,64.0,19.0,0,1,1,23.8
Status,1712576976000,28,18,5,29,1561097980,34.10,279.0,41.0,1,1,1,29.1
Status,1712576976000,28,19,5,30,1561097980,39.50,23.0,62.0,1,1,1,34.5
Status,1712576976000,28,20,5,2,1561097980,0.00,111.0,19.0,0,1,0,0.0
Status,1712576976000,28,21,2,136,1575420030,36.50,0.0,0.0,0,0,0,31.5
Status,1712576976000,28,22,6,2,1575420030,45.50,286.0,75.0,1,1,0,40.5
Status,1712576976000,28,23,6,11,1575420030,27.40,42.0,33.0,1,1,1,22.4
Status,1712576976000,28,24,6,25,1575420030,44.50,150.0,45.0,1,1,0,39.5
Status,1712576976000,28,25,6,30,1575420030,33.80,316.0,22.0,1,1,0,28.8
Status,1712576976000,28,26,6,34,1575420030,35.70,236.0,37.0,1,1,0,30.7
Status,1712576976000,28,27,6,36,1575420030,41.10,343.0,80.0,1,1,0,36.1
Raw,1712576976437,14388802000000,18,,-1396597805635252525,-0.7766246795654297,30.13006971741561,-10.823813332851248,15.323396466869845,872,10,0.0,49359,53376368692388,40,26.2,601.9252319335938,1.0584999322891235,16,0.0,0.0,1598062460,,,,0,,3,0.46,23.2,,,,,,
Raw,1712576976437,14388802000000,18,,-1396597805635252525,-0.7766246795654297,30.13006971741561,-10.823813332851248,15.323396466869845,872,11,0.0,49359,53376370730998,19,32.7,-194.11656188964844,0.7414999604225159,16,0.0,0.0,1602000000,,,,0,,3,0.46,29.700000000000003,,,,,,
Raw,1712576976437,14388802000000,18,,-1396597805635252525,-0.7766246795654297,30.13006971741561,-10.823813332851248,15.323396466869845,872,21,0.0,49359,53376369589008,21,31.2,-145.1491241455078,0.3246999979019165,16,0.0,0.0,1604249980,,,,0,,3,0.46,28.2,,,,,,
Raw,1712576976437,14388802000000,18,,-1396597805635252525,-0.7766246795654297,30.13006971741561,-10.823813332851248,15.323396466869845,872,5,0.0,81935,128994361031214,53,24.9,352.6522521972656,0.9980000257492065,16,0.0,0.0,1575420030,,,,0,,1,0.25,21.9,,,,,,
Raw,1712576976437,14388802000000,18,,-1396597805635252525,-0.7766246795654297,30.13006971741561,-10.823813332851248,15.323396466869845,872,16,0.0,81935,128994357714340,46,25.6,-636.8653564453125,0.9419999718666077,16,0.0,0.0,1575420030,,,,0,,1,0.25,22.6,,,,,,
Raw,1712576976437,14388802000000,18,,-1396597805635252525,-0.7766246795654297,30.13006971741561,-10.823813332851248,15.323396466869845,872,18,0.0,81935,128994368745791,10,39.9,-63.80795669555664,0.0341000035405159,16,0.0,0.0,1575420030,,,,0,,1,0.25,36.9,,,,,,
Raw,1712576976437,14388802000000,18,,-1396597805635252525,-0.7766246795654297,30.13006971741561,-10.823813332851248,15.323396466869845,872,23,0.0,81935,128994360663109,8,41.1,-640.2306518554688,0.021199999377131462,16,0.0,0.0,1575420030,,,,0,,1,0.25,38.1,,,,,,
Raw,1712576976437,14388802000000,18,,-1396597805635252525,-0.7766246795654297,30.13006971741561,-10.823813332851248,15.323396466869845,872,25,0.0,81935,128994360602207,10,39.8,659.3954467773438,0.022099999710917473,16,0.0,0.0,1575420030,,,,0,,1,0.25,36.8,,,,,,
Raw,1712576976437,14388802000000,18,,-1396597805635252525,-0.7766246795654297,30.13006971741561,-10.823813332851248,15.323396466869845,872,26,0.0,81935,128994365962220,31,28.4,-331.1680908203125,0.7339999675750732,16,0.0,0.0,1575420030,,,,0,,1,0.25,25.4,,,,,,
Raw,1712576976437,14388802000000,18,,-1396597805635252525,-0.7766246795654297,30.13006971741561,-10.823813332851248,15.323396466869845,872,28,0.0,81935,128994358153858,40,26.5,526.1049194335938,0.8734999895095825,16,0.0,0.0,1575420030,,,,0,,1,0.25,23.5,,,,,,
Raw,1712576976437,14388802000000,18,,-1396597805635252525,-0.7766246795654297,30.13006971741561,-10.823813332851248,15.323396466869845,872,29,0.0,81935,128994365888728,19,32.9,237.90774536132812,0.04879999905824661,16,0.0,0.0,1575420030,,,,0,,1,0.25,29.9,,,,,,
Raw,1712576976437,14388802000000,18,,-1396597805635252525,-0.7766246795654297,30.13006971741561,-10.823813332851248,15.323396466869845,872,31,0.0,81935,128994359684375,31,28.5,338.4372863769531,0.7249999642372131,16,0.0,0.0,1575420030,,,,0,,1,0.25,25.5,,,,,,
Raw,1712576976437,14388802000000,18,,-1396597805635252525,-0.7766246795654297,30.13006971741561,-10.823813332851248,15.323396466869845,872,5,0.0,16399,128980309672046,13,36.2,-4.8874053955078125,5.928799629211426,16,0.0,0.0,1561097980,,,,0,,5,1.02,30.200000000000003,,,,,,
Raw,1712576976437,14388802000000,18,,-1396597805635252525,-0.7766246795654297,30.13006971741561,-10.823813332851248,15.323396466869845,872,8,0.0,16399,128980309960291,83,21.2,130.7884979248047,1.7599999904632568,16,0.0,0.0,1561097980,,,,0,,5,1.02,15.2,,,,,,
Raw,1712576976437,14388802000000,18,,-1396597805635252525,-0.7766246795654297,30.13006971741561,-10.823813332851248,15.323396466869845,872,13,0.0,16399,128980312659896,31,28.4,58.063140869140625,0.5945000052452087,16,0.0,0.0,1561097980,,,,0,,5,1.02,22.4,,,,,,
Raw,1712576976437,14388802000000,18,,-1396597805635252525,-0.7766246795654297,30.13006971741561,-10.823813332851248,15.323396466869845,872,29,0.0,16399,128980359972769,31,28.1,-290.632568359375,0.574999988079071,16,0.0,0.0,1561097980,,,,0,,5,1.02,22.1,,,,,,
Raw,1712576976437,14388802000000,18,,-1396597805635252525,-0.7766246795654297,30.13006971741561,-10.823813332851248,15.323396466869845,872,30,0.0,16399,128980363568067,17,33.5,155.71070861816406,0.03779999911785126,16,0.0,0.0,1561097980,,,,0,,5,1.02,27.5,,,,,,
Raw,1712576976437,14388802000000,18,,-1396597805635252525,-0.7766246795654297,30.13006971741561,-10.823813332851248,15.323396466869845,872,2,0.0,89103,128994359347298,10,39.5,-73.30782318115234,0.050599999725818634,16,0.0,0.0,1575420030,,,,0,,6,0.22,33.5,,,,,,
Raw,1712576976437,14388802000000,18,,-1396597805635252525,-0.7766246795654297,30.13006971741561,-10.823813332851248,15.323396466869845,872,11,0.0,89103,128994354800130,84,21.4,437.12359619140625,1.7735000848770142,16,0.0,0.0,1575420030,,,,0,,6,0.22,15.399999999999999,,,,,,
Raw,1712576976437,14388802000000,18,,-1396597805635252525,-0.7766246795654297,30.13006971741561,-10.823813332851248,15.323396466869845,872,25,0.0,89103,128994354972327,11,38.5,409.5070495605469,0.04990000277757645,16,0.0,0.0,1575420030,,,,0,,6,0.22,32.5,,,,,,
Raw,1712576976437,14388802000000,18,,-1396597805635252525,-0.7766246795654297,30.13006971741561,-10.823813332851248,15.323396466869845,872,30,0.0,89103,128994348675101,35,27.8,-482.22320556640625,0.640500009059906,16,0.0,0.0,1575420030,,,,0,,6,0.22,21.8,,,,,,
Raw,1712576976437,14388802000000,18,,-1396597805635252525,-0.7766246795654297,30.13006971741561,-10.823813332851248,15.323396466869845,872,34,0.0,89103,128994352852220,27,29.7,-364.9832458496094,0.5504999756813049,16,0.0,0.0,1575420030,,,,0,,6,0.22,23.7,,,,,,
Raw,1712576976437,14388802000000,18,,-1396597805635252525,-0.7766246795654297,30.13006971741561,-10.823813332851248,15.323396466869845,872,36,0.0,89103,128994359343276,14,35.1,72.47244262695312,0.05430000275373459,16,0.0,0.0,1575420030,,,,0,,6,0.22,29.1,,,,,,
Fix,GPS,36.5452451300,29.1228695200,21.46099853515625,0.0,3.7900925,,1712576977000,1.3103435,,13450135562877,3.0,0,,,
Fix,FLP,36.5452452000,29.1228694000,31.299999237060547,0.06933078,3.9,,1712576977469,1.3103435,,13450135562877,8.331524,0,,,
Status,1712576977000,28,0,1,5,1575420030,28.40,52.0,28.0,1,1,1,23.4
Status,1712576977000,28,1,1,16,1575420030,31.20,316.0,15.0,1,1,1,26.2
Status,1712576977000,28,2,1,18,1575420030,43.10,272.0,78.0,1,1,1,38.1
Status,1712576977000,28,3,1,23,1575420030,46.20,168.0,28.0,1,1,1,41.2
Status,1712576977000,28,4,1,25,1575420030,43.70,149.0,28.0,1,1,1,38.7
Status,1712576977000,28,5,1,26,1575420030,34.20,302.0,47.0,1,1,1,29.2
Status,1712576977000,28,6,1,28,1575420030,29.90,227.0,19.0,1,1,1,24.9
Status,1712576977000,28,7,1,29,1575420030,36.30,59.0,51.0,1,1,1,31.3
Status,1712576977000,28,8,1,31,1575420030,31.90,258.0,26.0,1,1,1,26.9
Status,1712576977000,28,9,3,10,1602000000,28.20,191.0,46.0,0,1,0,23.2
Status,1712576977000,28,10,3,11,1602000000,34.80,296.0,56.0,1,1,1,29.8
Status,1712576977000,28,11,3,20,1602000000,27.90,25.0,41.0,1,1,0,22.9
Status,1712576977000,28,12,3,21,1602000000,36.10,292.0,50.0,1,1,1,31.1
Status,1712576977000,28,13,3,5,1602000000,0.00,85.0,16.0,0,1,0,0.0
Status,1712576977000,28,14,5,5,1561097980,42.50,135.0,37.0,1,1,0,37.5
Status,1712576977000,28,15,5,8,1561097980,27.20,40.0,35.0,1,1,1,22.2
Status,1712576977000,28,16,5,13,1561097980,37.40,52.0,46.0,1,1,1,32.4
Status,1712576977000,28,17,5,27,1561097980,28.80,64.0,19.0,0,1,1,23.8
Status,1712576977000,28,18,5,29,1561097980,28.90,279.0,41.0,1,1,1,23.9
Status,1712576977000,28,19,5,30,1561097980,36.40,23.0,62.0,1,1,1,31.4
Status,1712576977000,28,20,5,2,1561097980,0.00,111.0,19.0,0,1,0,0.0
Status,1712576977000,28,21,2,136,1575420030,36.50,0.0,0.0,0,0,0,31.5
Status,1712576977000,28,22,6,2,1575420030,45.30,286.0,75.0,1,1,0,40.3
Status,1712576977000,28,23,6,11,1575420030,27.40,42.0,33.0,1,1,1,22.4
Status,1712576977000,28,24,6,25,1575420030,44.70,150.0,45.0,1,1,0,39.7
Status,1712576977000,28,25,6,30,1575420030,35.70,316.0,22.0,1,1,0,30.7
Status,1712576977000,28,26,6,34,1575420030,32.00,236.0,37.0,1,1,0,27.0
Status,1712576977000,28,27,6,36,1575420030,38.70,343.0,80.0,1,1,0,33.7
Raw,1712576977437,14389802000000,18,,-1396597805635252536,-0.5948677062988281,50.906885007862,-10.823813332851248,24.11245803503216,873,10,0.0,49359,53377368690427,46,25.2,604.0731811523438,1.128499984741211,16,0.0,0.0,1598062460,,,,0,,3,0.55,22.2,,,,,,
Raw,1712576977437,14389802000000,18,,-1396597805635252536,-0.5948677062988281,50.906885007862,-10.823813332851248,24.11245803503216,873,11,0.0,49359,53377370731628,21,31.8,-192.33677673339844,0.326200008392334,16,0.0,0.0,1602000000,,,,0,,3,0.55,28.8,,,,,,
Raw,1712576977437,14389802000000,18,,-1396597805635252536,-0.5948677062988281,50.906885007862,-10.823813332851248,24.11245803503216,873,21,0.0,49359,53377369589532,17,33.1,-143.43295288085938,0.2468000054359436,16,0.0,0.0,1604249980,,,,0,,3,0.55,30.1,,,,,,
Raw,1712576977437,14389802000000,18,,-1396597805635252536,-0.5948677062988281,50.906885007862,-10.823813332851248,24.11245803503216,873,5,0.0,81935,128995361030022,46,25.4,355.7159729003906,0.9179999828338623,16,0.0,0.0,1575420030,,,,0,,1,0.34,22.4,,,,,,
Raw,1712576977437,14389802000000,18,,-1396597805635252536,-0.5948677062988281,50.906885007862,-10.823813332851248,24.11245803503216,873,16,0.0,81935,128995357716469,31,28.2,-634.3724975585938,0.7519999742507935,16,0.0,0.0,1575420030,,,,0,,1,0.34,25.2,,,,,,
Raw,1712576977437,14389802000000,18,,-1396597805635252536,-0.5948677062988281,50.906885007862,-10.823813332851248,24.11245803503216,873,18,0.0,81935,128995368746001,9,40.1,-62.01988983154297,0.03360000252723694,16,0.0,0.0,1575420030,,,,0,,1,0.34,37.1,,,,,,
Raw,1712576977437,14389802000000,18,,-1396597805635252536,-0.5948677062988281,50.906885007862,-10.823813332851248,24.11245803503216,873,23,0.0,81935,128995360665251,6,43.2,-638.5775146484375,0.020099999383091927,16,0.0,0.0,1575420030,,,,0,,1,0.34,40.2,,,,,,
Raw,1712576977437,14389802000000,18,,-1396597805635252536,-0.5948677062988281,50.906885007862,-10.823813332851248,24.11245803503216,873,25,0.0,81935,128995360600003,9,40.7,661.0845336914062,0.02160000056028366,16,0.0,0.0,1575420030,,,,0,,1,0.34,37.7,,,,,,
Raw,1712576977437,14389802000000,18,,-1396597805635252536,-0.5948677062988281,50.906885007862,-10.823813332851248,24.11245803503216,873,26,0.0,81935,128995365963323,21,31.2,-330.17999267578125,0.11869999766349792,16,0.0,0.0,1575420030,,,,0,,1,0.34,28.2,,,,,,
Raw,1712576977437,14389802000000,18,,-1396597805635252536,-0.5948677062988281,50.906885007862,-10.823813332851248,24.11245803503216,873,28,0.0,81935,128995358152142,40,26.9,527.9031982421875,0.8734999895095825,16,0.0,0.0,1575420030,,,,0,,1,0.34,23.9,,,,,,
Raw,1712576977437,14389802000000,18,,-1396597805635252536,-0.5948677062988281,50.906885007862,-10.823813332851248,24.11245803503216,873,29,0.0,81935,128995365887907,17,33.3,239.48330688476562,0.04079999774694443,16,0.0,0.0,1575420030,,,,0,,1,0.34,30.299999999999997,,,,,,
Raw,1712576977437,14389802000000,18,,-1396597805635252536,-0.5948677062988281,50.906885007862,-10.823813332851248,24.11245803503216,873,31,0.0,81935,128995359683267,31,28.9,340.3782958984375,0.7249999642372131,16,0.0,0.0,1575420030,,,,0,,1,0.34,25.9,,,,,,
Raw,1712576977437,14389802000000,18,,-1396597805635252536,-0.5948677062988281,50.906885007862,-10.823813332851248,24.11245803503216,873,5,0.0,16399,128981309672054,13,36.5,-4.541733741760254,5.928799629211426,16,0.0,0.0,1561097980,,,,0,,5,1.16,30.5,,,,,,
Raw,1712576977437,14389802000000,18,,-1396597805635252536,-0.5948677062988281,50.906885007862,-10.823813332851248,24.11245803503216,873,13,0.0,16399,128981312659716,21,31.4,59.649383544921875,0.1292000114917755,16,0.0,0.0,1561097980,,,,0,,5,1.16,25.4,,,,,,
Raw,1712576977437,14389802000000,18,,-1396597805635252536,-0.5948677062988281,50.906885007862,-10.823813332851248,24.11245803503216,873,29,0.0,16399,128981359973750,70,22.9,-289.3363037109375,0.9149999618530273,16,0.0,0.0,1561097980,,,,0,,5,1.16,16.9,,,,,,
Raw,1712576977437,14389802000000,18,,-1396597805635252536,-0.5948677062988281,50.906885007862,-10.823813332851248,24.11245803503216,873,30,0.0,16399,128981363567544,24,30.4,157.3643798828125,0.3862999975681305,16,0.0,0.0,1561097980,,,,0,,5,1.16,24.4,,,,,,
Raw,1712576977437,14389802000000,18,,-1396597805635252536,-0.5948677062988281,50.906885007862,-10.823813332851248,24.11245803503216,873,2,0.0,89103,128995359347551,10,39.3,-71.3644027709961,0.050599999725818634,16,0.0,0.0,1575420030,,,,0,,6,0.33,33.3,,,,,,
Raw,1712576977437,14389802000000,18,,-1396597805635252536,-0.5948677062988281,50.906885007862,-10.823813332851248,24.11245803503216,873,25,0.0,89103,128995354970957,11,38.7,411.4017333984375,0.04990000277757645,16,0.0,0.0,1575420030,,,,0,,6,0.33,32.7,,,,,,
Raw,1712576977437,14389802000000,18,,-1396597805635252536,-0.5948677062988281,50.906885007862,-10.823813332851248,24.11245803503216,873,30,0.0,89103,128995348676717,27,29.7,-479.98724365234375,0.5504999756813049,16,0.0,0.0,1575420030,,,,0,,6,0.33,23.7,,,,,,
Raw,1712576977437,14389802000000,18,,-1396597805635252536,-0.5948677062988281,50.906885007862,-10.823813332851248,24.11245803503216,873,34,0.0,89103,128995352853474,40,26.0,-362.6997375488281,0.6904999613761902,16,0.0,0.0,1575420030,,,,0,,6,0.33,20.0,,,,,,
Raw,1712576977437,14389802000000,18,,-1396597805635252536,-0.5948677062988281,50.906885007862,-10.823813332851248,24.11245803503216,873,36,0.0,89103,128995359343025,19,32.7,74.3935546875,0.06980000436306,16,0.0,0.0,1575420030,,,,0,,6,0.33,26.700000000000003,,,,,,
Fix,GPS,36.5452445500,29.1228702500,21.32110595703125,0.0,3.7900925,,1712576978000,0.086023256,,13451133952044,3.0,0,,,
Fix,FLP,36.5452446000,29.1228702000,31.299999237060547,0.04058962,3.881,,1712576978466,0.086023256,,13451133952044,8.341508,0,,,
Fix,NLP,36.5456999000,29.1231983000,31.69999885559082,,123.45,,1712576974881,,,13447547000000,12.352082,0,,,
Status,1712576978000,28,0,1,5,1575420030,29.70,52.0,28.0,1,1,1,24.7
Status,1712576978000,28,1,1,16,1575420030,34.70,316.0,15.0,1,1,1,29.7
Status,1712576978000,28,2,1,18,1575420030,42.10,272.0,78.0,1,1,1,37.1
Status,1712576978000,28,3,1,23,1575420030,44.20,168.0,28.0,1,1,1,39.2
Status,1712576978000,28,4,1,25,1575420030,43.80,149.0,28.0,1,1,1,38.8
Status,1712576978000,28,5,1,26,1575420030,37.40,302.0,47.0,1,1,1,32.4
Status,1712576978000,28,6,1,28,1575420030,31.80,227.0,19.0,1,1,1,26.8
Status,1712576978000,28,7,1,29,1575420030,35.20,59.0,51.0,1,1,1,30.2
Status,1712576978000,28,8,1,31,1575420030,32.20,258.0,26.0,1,1,1,27.2
Status,1712576978000,28,9,3,10,1602000000,30.10,191.0,46.0,0,1,0,25.1
Status,1712576978000,28,10,3,11,1602000000,36.70,296.0,56.0,1,1,1,31.7
Status,1712576978000,28,11,3,20,1602000000,27.90,25.0,41.0,1,1,0,22.9
Status,1712576978000,28,12,3,21,1602000000,38.00,292.0,50.0,1,1,1,33.0
Status,1712576978000,28,13,3,5,1602000000,0.00,85.0,16.0,0,1,0,0.0
