# 
# Header Description:
# 
# Version: v3.0.6.4 Platform: 13 Manufacturer: samsung Model: SM-A715F
# 
# Raw,utcTimeMillis,TimeNanos,LeapSecond,TimeUncertaintyNanos,FullBiasNanos,BiasNanos,BiasUncertaintyNanos,DriftNanosPerSecond,DriftUncertaintyNanosPerSecond,HardwareClockDiscontinuityCount,Svid,TimeOffsetNanos,State,ReceivedSvTimeNanos,ReceivedSvTimeUncertaintyNanos,Cn0DbHz,PseudorangeRateMetersPerSecond,PseudorangeRateUncertaintyMetersPerSecond,AccumulatedDeltaRangeState,AccumulatedDeltaRangeMeters,AccumulatedDeltaRangeUncertaintyMeters,CarrierFrequencyHz,CarrierCycles,CarrierPhase,CarrierPhaseUncertainty,MultipathIndicator,SnrInDb,ConstellationType,AgcDb,BasebandCn0DbHz,FullInterSignalBiasNanos,FullInterSignalBiasUncertaintyNanos,SatelliteInterSignalBiasNanos,SatelliteInterSignalBiasUncertaintyNanos,CodeType,ChipsetElapsedRealtimeNanos
# 
# UncalAccel,utcTimeMillis,elapsedRealtimeNanos,UncalAccelXMps2,UncalAccelYMps2,UncalAccelZMps2,BiasXMps2,BiasYMps2,BiasZMps2
# 
# Accel,utcTimeMillis,elapsedRealtimeNanos,AccelXMps2,AccelYMps2,AccelZMps2
# 
# UncalGyro,utcTimeMillis,elapsedRealtimeNanos,UncalGyroXRadPerSec,UncalGyroYRadPerSec,UncalGyroZRadPerSec,DriftXRadPerSec,DriftYRadPerSec,DriftZRadPerSec
# 
# Gyro,utcTimeMillis,elapsedRealtimeNanos,GyroXRadPerSec,GyroYRadPerSec,GyroZRadPerSec
# 
# UncalMag,utcTimeMillis,elapsedRealtimeNanos,UncalMagXMicroT,UncalMagYMicroT,UncalMagZMicroT,BiasXMicroT,BiasYMicroT,BiasZMicroT
# 
# Mag,utcTimeMillis,elapsedRealtimeNanos,MagXMicroT,MagYMicroT,MagZMicroT
# 
# OrientationDeg,utcTimeMillis,elapsedRealtimeNanos,yawDeg,rollDeg,pitchDeg
# 
# Fix,Provider,LatitudeDegrees,LongitudeDegrees,AltitudeMeters,SpeedMps,AccuracyMeters,BearingDegrees,UnixTimeMillis,SpeedAccuracyMps,BearingAccuracyDegrees,elapsedRealtimeNanos,VerticalAccuracyMeters,MockLocation,NumberOfUsedSignals,VerticalSpeedAccuracyMps,SolutionType
# 
# Nav,Svid,Type,Status,MessageId,Sub-messageId,Data(Bytes)
# 
# Status,UnixTimeMillis,SignalCount,SignalIndex,ConstellationType,Svid,CarrierFrequencyHz,Cn0DbHz,AzimuthDegrees,ElevationDegrees,UsedInFix,HasAlmanacData,HasEphemerisData,BasebandCn0DbHz
# 
# Agc,utcTimeMillis,TimeNanos,LeapSecond,TimeUncertaintyNanos,FullBiasNanos,BiasNanos,BiasUncertaintyNanos,DriftNanosPerSecond,DriftUncertaintyNanosPerSecond,HardwareClockDiscontinuityCount,AgcDb,CarrierFrequencyHz,ConstellationType
# 
Fix,FLP,36.6351443000,29.0834732000,252.37579345703125,1.2273191,4.925,233.38489,1712570331464,0.086023256,45.0,6804130980373,4.0,0,,,
Status,,37,0,1,5,1575420030,45.30,108.0,24.0,1,1,1,40.3
Status,,37,1,1,11,1575420030,39.70,42.0,20.0,1,1,1,34.7
Status,,37,2,1,12,1575420030,39.40,109.0,42.0,1,1,1,34.4
Status,,37,3,1,18,1575420030,37.00,203.0,30.0,1,1,1,32.0
Status,,37,4,1,20,1575420030,43.90,71.0,25.0,1,1,1,38.9
Status,,37,5,1,25,1575420030,38.40,91.0,74.0,1,1,1,33.4
Status,,37,6,1,26,1575420030,39.20,307.0,4.0,1,1,0,34.2
Status,,37,7,1,28,1575420030,39.00,285.0,41.0,1,1,1,34.0
Status,,37,8,1,29,1575420030,34.00,313.0,65.0,1,1,1,29.0
Status,,37,9,1,31,1575420030,38.60,310.0,22.0,1,1,1,33.6
Status,,37,10,3,10,1602000000,32.90,329.0,61.0,1,1,1,27.9
Status,,37,11,3,9,1602000000,27.40,143.0,67.0,1,1,0,22.4
Status,,37,12,3,16,1602000000,34.30,144.0,11.0,1,1,1,29.3
Status,,37,13,3,11,1602000000,35.90,326.0,8.0,1,1,0,30.9
Status,,37,14,3,20,1602000000,23.00,257.0,70.0,0,1,0,18.0
Status,,37,15,3,19,1602000000,27.30,28.0,35.0,1,1,0,22.3
Status,,37,16,3,21,1602000000,32.30,226.0,15.0,1,1,1,27.3
Status,,37,17,5,2,1561097980,30.20,112.0,18.0,0,1,0,25.2
Status,,37,18,5,5,1561097980,40.30,136.0,36.0,1,1,0,35.3
Status,,37,19,5,8,1561097980,42.40,64.0,36.0,1,1,1,37.4
Status,,37,20,5,10,1561097980,29.50,87.0,14.0,1,1,0,24.5
Status,,37,21,5,13,1561097980,47.60,81.0,40.0,1,1,1,42.6
Status,,37,22,5,27,1561097980,42.50,39.0,56.0,1,1,1,37.5
Status,,37,23,5,29,1561097980,36.70,239.0,11.0,0,1,0,31.7
Status,,37,24,5,30,1561097980,47.00,260.0,63.0,1,1,1,42.0
Status,,37,25,5,7,1561097980,0.00,0.0,0.0,0,1,0,0.0
Status,,37,26,5,28,1561097980,0.00,50.0,11.0,0,1,0,0.0
Status,,37,27,2,136,1575420030,39.30,0.0,0.0,0,0,0,34.3
Status,,37,28,6,2,1575420030,42.60,313.0,38.0,1,1,0,37.6
Status,,37,29,6,8,1575420030,38.00,281.0,1.0,0,1,1,33.0
Status,,37,30,6,10,1575420030,40.80,45.0,41.0,1,1,0,35.8
Status,,37,31,6,11,1575420030,27.90,68.0,68.0,0,1,1,22.9
Status,,37,32,6,12,1575420030,30.80,39.0,17.0,0,1,0,25.8
Status,,37,33,6,24,1575420030,40.00,116.0,28.0,1,1,0,35.0
Status,,37,34,6,25,1575420030,36.60,57.0,77.0,1,1,0,31.6
Status,,37,35,6,34,1575420030,27.30,209.0,2.0,0,1,0,22.3
Status,,37,36,6,36,1575420030,47.00,195.0,50.0,1,1,0,42.0
Raw,1712570331430,7743794000000,18,,-1396597805636662623,0.45881080627441406,32.25466934964061,-7.833292353852814,10.672213316144907,245,10,0.0,49359,46731364793224,27,29.9,-368.1412353515625,0.872499942779541,16,0.0,0.0,1598062460,,,,0,,3,0.48,26.9,,,,,,
Raw,1712570331430,7743794000000,18,,-1396597805636662623,0.45881080627441406,32.25466934964061,-7.833292353852814,10.672213316144907,245,16,0.0,49359,46731352683014,21,31.3,755.743896484375,0.32919999957084656,16,0.0,0.0,1601437440,,,,0,,3,0.48,28.3,,,,,,
Raw,1712570331430,7743794000000,18,,-1396597805636662623,0.45881080627441406,32.25466934964061,-7.833292353852814,10.672213316144907,245,11,0.0,49359,46731351317896,19,32.9,-777.950927734375,0.25780001282691956,16,0.0,0.0,1602000000,,,,0,,3,0.48,29.9,,,,,,
Raw,1712570331430,7743794000000,18,,-1396597805636662623,0.45881080627441406,32.25466934964061,-7.833292353852814,10.672213316144907,245,21,0.0,49359,46731353891284,27,29.3,-668.5880737304688,0.8859999775886536,16,0.0,0.0,1604249980,,,,0,,3,0.48,26.3,,,,,,
Raw,1712570331430,7743794000000,18,,-1396597805636662623,0.45881080627441406,32.25466934964061,-7.833292353852814,10.672213316144907,245,5,0.0,81935,122349353271605,7,42.3,-416.4341735839844,0.04010000079870224,16,0.0,0.0,1575420030,,,,0,,1,2.14,39.3,,,,,,
Raw,1712570331430,7743794000000,18,,-1396597805636662623,0.45881080627441406,32.25466934964061,-7.833292353852814,10.672213316144907,245,11,0.0,81935,122349351053235,13,36.7,598.3681640625,0.04169999808073044,16,0.0,0.0,1575420030,,,,0,,1,2.14,33.7,,,,,,
Raw,1712570331430,7743794000000,18,,-1396597805636662623,0.45881080627441406,32.25466934964061,-7.833292353852814,10.672213316144907,245,12,0.0,81935,122349357556112,13,36.4,431.8772888183594,0.050700001418590546,16,0.0,0.0,1575420030,,,,0,,1,2.14,33.4,,,,,,
Raw,1712570331430,7743794000000,18,,-1396597805636662623,0.45881080627441406,32.25466934964061,-7.833292353852814,10.672213316144907,245,18,0.0,81935,122349354016593,16,34.0,-628.60791015625,0.047700002789497375,16,0.0,0.0,1575420030,,,,0,,1,2.14,31.0,,,,,,
Raw,1712570331430,7743794000000,18,,-1396597805636662623,0.45881080627441406,32.25466934964061,-7.833292353852814,10.672213316144907,245,20,0.0,81935,122349353449836,9,40.9,-11.774088859558105,0.04110000282526016,16,0.0,0.0,1575420030,,,,0,,1,2.14,37.9,,,,,,
Raw,1712570331430,7743794000000,18,,-1396597805636662623,0.45881080627441406,32.25466934964061,-7.833292353852814,10.672213316144907,245,25,0.0,81935,122349363550983,14,35.4,145.6058349609375,0.030300002545118332,16,0.0,0.0,1575420030,,,,0,,1,2.14,32.4,,,,,,
Raw,1712570331430,7743794000000,18,,-1396597805636662623,0.45881080627441406,32.25466934964061,-7.833292353852814,10.672213316144907,245,26,0.0,81935,122349347464449,13,36.2,-636.6919555664062,0.0357000008225441,16,0.0,0.0,1575420030,,,,0,,1,2.14,33.2,,,,,,
Raw,1712570331430,7743794000000,18,,-1396597805636662623,0.45881080627441406,32.25466934964061,-7.833292353852814,10.672213316144907,245,28,0.0,81935,122349357486328,13,36.0,-100.99079132080078,0.050700001418590546,16,0.0,0.0,1575420030,,,,0,,1,2.14,33.0,,,,,,
Raw,1712570331430,7743794000000,18,,-1396597805636662623,0.45881080627441406,32.25466934964061,-7.833292353852814,10.672213316144907,245,29,0.0,81935,122349361285369,21,31.0,-78.02040100097656,0.578000009059906,16,0.0,0.0,1575420030,,,,0,,1,2.14,28.0,,,,,,
Raw,1712570331430,7743794000000,18,,-1396597805636662623,0.45881080627441406,32.25466934964061,-7.833292353852814,10.672213316144907,245,31,0.0,81935,122349352697759,14,35.6,-397.92431640625,0.043800003826618195,16,0.0,0.0,1575420030,,,,0,,1,2.14,32.6,,,,,,
Raw,1712570331430,7743794000000,18,,-1396597805636662623,0.45881080627441406,32.25466934964061,-7.833292353852814,10.672213316144907,245,5,0.0,16399,122335302904189,21,34.3,-6.538944244384766,7.3510003089904785,16,0.0,0.0,1561097980,,,,0,,5,1.87,28.299999999999997,,,,,,
Raw,1712570331430,7743794000000,18,,-1396597805636662623,0.45881080627441406,32.25466934964061,-7.833292353852814,10.672213316144907,245,8,0.0,16399,122335303604106,13,36.4,-130.5371551513672,0.02970000170171261,16,0.0,0.0,1561097980,,,,0,,5,1.87,30.4,,,,,,
Raw,1712570331430,7743794000000,18,,-1396597805636662623,0.45881080627441406,32.25466934964061,-7.833292353852814,10.672213316144907,245,13,0.0,16399,122335304704450,8,41.6,-192.7525177001953,0.0272000003606081,16,0.0,0.0,1561097980,,,,0,,5,1.87,35.6,,,,,,
Raw,1712570331430,7743794000000,18,,-1396597805636662623,0.45881080627441406,32.25466934964061,-7.833292353852814,10.672213316144907,245,27,0.0,16399,122335356400621,13,36.5,321.5674743652344,0.04919999837875366,16,0.0,0.0,1561097980,,,,0,,5,1.87,30.5,,,,,,
Raw,1712570331430,7743794000000,18,,-1396597805636662623,0.45881080627441406,32.25466934964061,-7.833292353852814,10.672213316144907,245,29,0.0,16399,122335344412636,24,30.7,-521.2047729492188,0.5024999976158142,16,0.0,0.0,1561097980,,,,0,,5,1.87,24.7,,,,,,
Raw,1712570331430,7743794000000,18,,-1396597805636662623,0.45881080627441406,32.25466934964061,-7.833292353852814,10.672213316144907,245,30,0.0,16399,122335357182046,8,41.0,-181.81129455566406,0.04670000448822975,16,0.0,0.0,1561097980,,,,0,,5,1.87,35.0,,,,,,
Raw,1712570331430,7743794000000,18,,-1396597805636662623,0.45881080627441406,32.25466934964061,-7.833292353852814,10.672213316144907,245,2,0.0,89103,122349346891501,13,36.6,-391.12957763671875,0.05220000445842743,16,0.0,0.0,1575420030,,,,0,,6,2.21,30.6,,,,,,
Raw,1712570331430,7743794000000,18,,-1396597805636662623,0.45881080627441406,32.25466934964061,-7.833292353852814,10.672213316144907,245,8,0.0,89103,122349334522992,19,32.0,327.46807861328125,0.06830000132322311,16,0.0,0.0,1575420030,,,,0,,6,2.21,26.0,,,,,,
Raw,1712570331430,7743794000000,18,,-1396597805636662623,0.45881080627441406,32.25466934964061,-7.833292353852814,10.672213316144907,245,10,0.0,89103,122349346747637,16,34.8,363.83428955078125,0.053700003772974014,16,0.0,0.0,1575420030,,,,0,,6,2.21,28.799999999999997,,,,,,
Raw,1712570331430,7743794000000,18,,-1396597805636662623,0.45881080627441406,32.25466934964061,-7.833292353852814,10.672213316144907,245,24,0.0,89103,122349343303336,16,34.0,383.6767883300781,0.0552000030875206,16,0.0,0.0,1575420030,,,,0,,6,2.21,28.0,,,,,,
Raw,1712570331430,7743794000000,18,,-1396597805636662623,0.45881080627441406,32.25466934964061,-7.833292353852814,10.672213316144907,245,25,0.0,89103,122349352813667,24,30.6,-3.9295642375946045,0.6554999947547913,16,0.0,0.0,1575420030,,,,0,,6,2.21,24.6,,,,,,
Raw,1712570331430,7743794000000,18,,-1396597805636662623,0.45881080627441406,32.25466934964061,-7.833292353852814,10.672213316144907,245,36,0.0,89103,122349349227172,8,41.0,-402.2843933105469,0.04670000448822975,16,0.0,0.0,1575420030,,,,0,,6,2.21,35.0,,,,,,
Fix,GPS,36.6351479300,29.0834784400,251.24102783203125,0.47,3.7900925,1.8,1712570332000,1.1610771,78.28101,6805146744175,3.0,0,,,
Fix,FLP,36.6351476000,29.0834775000,251.24102783203125,0.46201405,3.925,0.92133397,1712570332479,1.1610771,78.28101,6805146744175,3.0,0,,,
Status,1712570332000,37,0,1,5,1575420030,43.00,108.0,24.0,1,1,1,38.0
Status,1712570332000,37,1,1,11,1575420030,30.60,42.0,20.0,1,1,1,25.6
Status,1712570332000,37,2,1,12,1575420030,41.20,109.0,42.0,1,1,1,36.2
Status,1712570332000,37,3,1,18,1575420030,39.70,203.0,30.0,1,1,1,34.7
Status,1712570332000,37,4,1,20,1575420030,38.90,71.0,25.0,1,1,1,33.9
Status,1712570332000,37,5,1,25,1575420030,39.20,91.0,74.0,1,1,1,34.2
Status,1712570332000,37,6,1,26,1575420030,43.10,307.0,4.0,1,1,0,38.1
Status,1712570332000,37,7,1,28,1575420030,40.90,285.0,41.0,1,1,1,35.9
Status,1712570332000,37,8,1,29,1575420030,38.50,313.0,65.0,1,1,1,33.5
Status,1712570332000,37,9,1,31,1575420030,43.30,310.0,22.0,1,1,1,38.3
Status,1712570332000,37,10,3,10,1602000000,33.20,329.0,61.0,1,1,1,28.2
Status,1712570332000,37,11,3,9,1602000000,27.40,143.0,67.0,1,1,0,22.4
Status,1712570332000,37,12,3,16,1602000000,34.20,144.0,11.0,1,1,1,29.2
Status,1712570332000,37,13,3,11,1602000000,40.90,326.0,8.0,1,1,0,35.9
Status,1712570332000,37,14,3,20,1602000000,23.00,257.0,70.0,0,1,0,18.0
Status,1712570332000,37,15,3,19,1602000000,27.30,28.0,35.0,1,1,0,22.3
Status,1712570332000,37,16,3,21,1602000000,40.70,226.0,15.0,1,1,1,35.7
Status,1712570332000,37,17,5,2,1561097980,30.20,112.0,18.0,0,1,0,25.2
Status,1712570332000,37,18,5,5,1561097980,44.60,136.0,36.0,1,1,0,39.6
Status,1712570332000,37,19,5,8,1561097980,39.60,64.0,36.0,1,1,1,34.6
Status,1712570332000,37,20,5,10,1561097980,29.50,87.0,14.0,1,1,0,24.5
Status,1712570332000,37,21,5,13,1561097980,39.20,81.0,40.0,1,1,1,34.2
Status,1712570332000,37,22,5,27,1561097980,44.80,39.0,56.0,1,1,1,39.8
Status,1712570332000,37,23,5,29,1561097980,45.80,239.0,11.0,0,1,0,40.8
Status,1712570332000,37,24,5,30,1561097980,43.90,260.0,63.0,1,1,1,38.9
Status,1712570332000,37,25,5,7,1561097980,0.00,0.0,0.0,0,1,0,0.0
Status,1712570332000,37,26,5,28,1561097980,0.00,50.0,11.0,0,1,0,0.0
Status,1712570332000,37,27,2,136,1575420030,40.70,0.0,0.0,0,0,0,35.7
Status,1712570332000,37,28,6,2,1575420030,38.20,313.0,38.0,1,1,0,33.2
Status,1712570332000,37,29,6,8,1575420030,38.20,281.0,1.0,0,1,1,33.2
Status,1712570332000,37,30,6,10,1575420030,42.80,45.0,41.0,1,1,0,37.8
Status,1712570332000,37,31,6,11,1575420030,27.90,68.0,68.0,0,1,1,22.9
Status,1712570332000,37,32,6,12,1575420030,30.80,39.0,17.0,0,1,0,25.8
Status,1712570332000,37,33,6,24,1575420030,44.00,116.0,28.0,1,1,0,39.0
Status,1712570332000,37,34,6,25,1575420030,40.40,57.0,77.0,1,1,0,35.4
Status,1712570332000,37,35,6,34,1575420030,27.30,209.0,2.0,0,1,0,22.3
Status,1712570332000,37,36,6,36,1575420030,38.30,195.0,50.0,1,1,0,33.3
Raw,1712570332430,7744794000000,18,,-1396597805636662633,0.17700958251953125,35.21393955452368,-11.85249847703216,15.990345878597267,245,10,0.0,49359,46732364794454,24,30.2,-365.2897644042969,0.8224999904632568,16,0.0,0.0,1598062460,,,,0,,3,0.56,27.2,,,,,,
Raw,1712570332430,7744794000000,18,,-1396597805636662633,0.17700958251953125,35.21393955452368,-11.85249847703216,15.990345878597267,245,16,0.0,49359,46732352680535,21,31.2,756.5960083007812,0.7944999933242798,16,0.0,0.0,1601437440,,,,0,,3,0.56,28.2,,,,,,
Raw,1712570332430,7744794000000,18,,-1396597805636662633,0.17700958251953125,35.21393955452368,-11.85249847703216,15.990345878597267,245,11,0.0,49359,46732351320419,12,37.9,-777.446533203125,0.2404000163078308,16,0.0,0.0,1602000000,,,,0,,3,0.56,34.9,,,,,,
Raw,1712570332430,7744794000000,18,,-1396597805636662633,0.17700958251953125,35.21393955452368,-11.85249847703216,15.990345878597267,245,21,0.0,49359,46732353893531,12,37.7,-665.915771484375,0.5860000252723694,16,0.0,0.0,1604249980,,,,0,,3,0.56,34.7,,,,,,
Raw,1712570332430,7744794000000,18,,-1396597805636662633,0.17700958251953125,35.21393955452368,-11.85249847703216,15.990345878597267,245,5,0.0,81935,122350353273004,9,40.0,-415.1517639160156,0.04110000282526016,16,0.0,0.0,1575420030,,,,0,,1,2.2,37.0,,,,,,
Raw,1712570332430,7744794000000,18,,-1396597805636662633,0.17700958251953125,35.21393955452368,-11.85249847703216,15.990345878597267,245,11,0.0,81935,122350351051164,35,27.6,599.41552734375,0.8029999732971191,16,0.0,0.0,1575420030,,,,0,,1,2.2,24.6,,,,,,
Raw,1712570332430,7744794000000,18,,-1396597805636662633,0.17700958251953125,35.21393955452368,-11.85249847703216,15.990345878597267,245,12,0.0,81935,122350357554671,11,38.2,433.1319885253906,0.04840000346302986,16,0.0,0.0,1575420030,,,,0,,1,2.2,35.2,,,,,,
Raw,1712570332430,7744794000000,18,,-1396597805636662633,0.17700958251953125,35.21393955452368,-11.85249847703216,15.990345878597267,245,18,0.0,81935,122350354018690,13,36.7,-627.0653686523438,0.04619999974966049,16,0.0,0.0,1575420030,,,,0,,1,2.2,33.7,,,,,,
Raw,1712570332430,7744794000000,18,,-1396597805636662633,0.17700958251953125,35.21393955452368,-11.85249847703216,15.990345878597267,245,20,0.0,81935,122350353449870,14,35.9,-10.540245056152344,0.04530000314116478,16,0.0,0.0,1575420030,,,,0,,1,2.2,32.9,,,,,,
Raw,1712570332430,7744794000000,18,,-1396597805636662633,0.17700958251953125,35.21393955452368,-11.85249847703216,15.990345878597267,245,25,0.0,81935,122350363550528,13,36.2,147.08375549316406,0.02970000170171261,16,0.0,0.0,1575420030,,,,0,,1,2.2,33.2,,,,,,
Raw,1712570332430,7744794000000,18,,-1396597805636662633,0.17700958251953125,35.21393955452368,-11.85249847703216,15.990345878597267,245,26,0.0,81935,122350347466543,9,40.1,-635.5180053710938,0.032099999487400055,16,0.0,0.0,1575420030,,,,0,,1,2.2,37.1,,,,,,
Raw,1712570332430,7744794000000,18,,-1396597805636662633,0.17700958251953125,35.21393955452368,-11.85249847703216,15.990345878597267,245,28,0.0,81935,122350357486664,12,37.9,-99.45661163330078,0.049400001764297485,16,0.0,0.0,1575420030,,,,0,,1,2.2,34.9,,,,,,
Raw,1712570332430,7744794000000,18,,-1396597805636662633,0.17700958251953125,35.21393955452368,-11.85249847703216,15.990345878597267,245,29,0.0,81935,122350361285647,14,35.5,-76.37906646728516,0.027300000190734863,16,0.0,0.0,1575420030,,,,0,,1,2.2,32.5,,,,,,
Raw,1712570332430,7744794000000,18,,-1396597805636662633,0.17700958251953125,35.21393955452368,-11.85249847703216,15.990345878597267,245,31,0.0,81935,122350352699088,9,40.3,-397.01025390625,0.03960000351071358,16,0.0,0.0,1575420030,,,,0,,1,2.2,37.3,,,,,,
Raw,1712570332430,7744794000000,18,,-1396597805636662633,0.17700958251953125,35.21393955452368,-11.85249847703216,15.990345878597267,245,5,0.0,16399,122336302904197,11,38.6,-6.740586757659912,5.3277997970581055,16,0.0,0.0,1561097980,,,,0,,5,1.93,32.6,,,,,,
Raw,1712570332430,7744794000000,18,,-1396597805636662633,0.17700958251953125,35.21393955452368,-11.85249847703216,15.990345878597267,245,8,0.0,16399,122336303604537,17,33.6,-129.1317596435547,0.03779999911785126,16,0.0,0.0,1561097980,,,,0,,5,1.93,27.6,,,,,,
Raw,1712570332430,7744794000000,18,,-1396597805636662633,0.17700958251953125,35.21393955452368,-11.85249847703216,15.990345878597267,245,13,0.0,16399,122336304705071,17,33.2,-191.25148010253906,0.03930000215768814,16,0.0,0.0,1561097980,,,,0,,5,1.93,27.200000000000003,,,,,,
Raw,1712570332430,7744794000000,18,,-1396597805636662633,0.17700958251953125,35.21393955452368,-11.85249847703216,15.990345878597267,245,27,0.0,16399,122336356399540,11,38.8,322.6935119628906,0.04690000042319298,16,0.0,0.0,1561097980,,,,0,,5,1.93,32.8,,,,,,
Raw,1712570332430,7744794000000,18,,-1396597805636662633,0.17700958251953125,35.21393955452368,-11.85249847703216,15.990345878597267,245,29,0.0,16399,122336344414433,10,39.8,-518.7971801757812,0.02810000069439411,16,0.0,0.0,1561097980,,,,0,,5,1.93,33.8,,,,,,
Raw,1712570332430,7744794000000,18,,-1396597805636662633,0.17700958251953125,35.21393955452368,-11.85249847703216,15.990345878597267,245,30,0.0,16399,122336357182642,12,37.9,-180.23690795898438,0.049400001764297485,16,0.0,0.0,1561097980,,,,0,,5,1.93,31.9,,,,,,
Raw,1712570332430,7744794000000,18,,-1396597805636662633,0.17700958251953125,35.21393955452368,-11.85249847703216,15.990345878597267,245,2,0.0,89103,122350346892803,19,32.2,-390.2372741699219,0.08330000191926956,16,0.0,0.0,1575420030,,,,0,,6,2.24,26.200000000000003,,,,,,
Raw,1712570332430,7744794000000,18,,-1396597805636662633,0.17700958251953125,35.21393955452368,-11.85249847703216,15.990345878597267,245,8,0.0,89103,122350334521871,19,32.2,328.1808776855469,0.06830000132322311,16,0.0,0.0,1575420030,,,,0,,6,2.24,26.200000000000003,,,,,,
Raw,1712570332430,7744794000000,18,,-1396597805636662633,0.17700958251953125,35.21393955452368,-11.85249847703216,15.990345878597267,245,10,0.0,89103,122350346746409,13,36.8,364.6485290527344,0.06720000505447388,16,0.0,0.0,1575420030,,,,0,,6,2.24,30.799999999999997,,,,,,
Raw,1712570332430,7744794000000,18,,-1396597805636662633,0.17700958251953125,35.21393955452368,-11.85249847703216,15.990345878597267,245,24,0.0,89103,122350343302051,11,38.0,384.58367919921875,0.06639999896287918,16,0.0,0.0,1575420030,,,,0,,6,2.24,32.0,,,,,,
Raw,1712570332430,7744794000000,18,,-1396597805636662633,0.17700958251953125,35.21393955452368,-11.85249847703216,15.990345878597267,245,25,0.0,89103,122350352813667,16,34.4,-2.1868715286254883,0.050700001418590546,16,0.0,0.0,1575420030,,,,0,,6,2.24,28.4,,,,,,
Raw,1712570332430,7744794000000,18,,-1396597805636662633,0.17700958251953125,35.21393955452368,-11.85249847703216,15.990345878597267,245,36,0.0,89103,122350349228532,19,32.3,-401.0569152832031,0.06680000573396683,16,0.0,0.0,1575420030,,,,0,,6,2.24,26.299999999999997,,,,,,
Fix,GPS,36.6351434600,29.0834767800,248.68798828125,0.7,3.7900925,5.8,1712570333000,1.1337107,65.16884,6806157449539,3.0,0,,,
Fix,FLP,36.6351448000,29.0834769000,248.68798828125,0.6945032,3.9,4.990303,1712570333491,1.1337107,65.16884,6806157449539,3.0,0,,,
Status,1712570333000,37,0,1,5,1575420030,35.70,108.0,24.0,1,1,1,30.7
Status,1712570333000,37,1,1,11,1575420030,36.40,42.0,20.0,1,1,1,31.4
Status,1712570333000,37,2,1,12,1575420030,37.90,109.0,42.0,1,1,1,32.9
Status,1712570333000,37,3,1,18,1575420030,37.70,203.0,30.0,1,1,1,32.7
Status,1712570333000,37,4,1,20,1575420030,37.10,71.0,25.0,1,1,1,32.1
Status,1712570333000,37,5,1,25,1575420030,39.70,91.0,74.0,1,1,1,34.7
Status,1712570333000,37,6,1,26,1575420030,46.20,307.0,4.0,1,1,0,41.2
Status,1712570333000,37,7,1,28,1575420030,44.90,285.0,41.0,1,1,1,39.9
Status,1712570333000,37,8,1,29,1575420030,45.60,313.0,65.0,1,1,1,40.6
Status,1712570333000,37,9,1,31,1575420030,44.70,310.0,22.0,1,1,1,39.7
Status,1712570333000,37,10,3,10,1602000000,34.80,329.0,61.0,1,1,1,29.8
Status,1712570333000,37,11,3,9,1602000000,38.90,143.0,67.0,1,1,0,33.9
Status,1712570333000,37,12,3,16,1602000000,36.10,144.0,11.0,1,1,1,31.1
Status,1712570333000,37,13,3,11,1602000000,44.20,326.0,8.0,1,1,0,39.2
Status,1712570333000,37,14,3,20,1602000000,26.30,257.0,70.0,0,1,0,21.3
Status,1712570333000,37,15,3,19,1602000000,26.00,28.0,35.0,1,1,0,21.0
Status,1712570333000,37,16,3,21,1602000000,39.40,226.0,15.0,1,1,1,34.4
Status,1712570333000,37,17,5,2,1561097980,30.20,112.0,18.0,0,1,0,25.2
Status,1712570333000,37,18,5,5,1561097980,39.80,136.0,36.0,1,1,0,34.8
Status,1712570333000,37,19,5,8,1561097980,40.10,64.0,36.0,1,1,1,35.1
Status,1712570333000,37,20,5,10,1561097980,29.50,87.0,14.0,1,1,0,24.5
Status,1712570333000,37,21,5,13,1561097980,38.40,81.0,40.0,1,1,1,33.4
Status,1712570333000,37,22,5,27,1561097980,44.60,39.0,56.0,1,1,1,39.6
Status,1712570333000,37,23,5,29,1561097980,42.20,239.0,11.0,0,1,0,37.2
Status,1712570333000,37,24,5,30,1561097980,43.70,260.0,63.0,1,1,1,38.7
Status,1712570333000,37,25,5,7,1561097980,0.00,0.0,0.0,0,1,0,0.0
Status,1712570333000,37,26,5,28,1561097980,0.00,50.0,11.0,0,1,0,0.0
Status,1712570333000,37,27,2,136,1575420030,39.90,0.0,0.0,0,0,0,34.9
Status,1712570333000,37,28,6,2,1575420030,43.80,313.0,38.0,1,1,0,38.8
Status,1712570333000,37,29,6,8,1575420030,44.00,281.0,1.0,0,1,1,39.0
Status,1712570333000,37,30,6,10,1575420030,43.40,45.0,41.0,1,1,0,38.4
Status,1712570333000,37,31,6,11,1575420030,36.90,68.0,68.0,0,1,1,31.9
Status,1712570333000,37,32,6,12,1575420030,34.50,39.0,17.0,0,1,0,29.5
Status,1712570333000,37,33,6,24,1575420030,39.70,116.0,28.0,1,1,0,34.7
Status,1712570333000,37,34,6,25,1575420030,43.70,57.0,77.0,1,1,0,38.7
Status,1712570333000,37,35,6,34,1575420030,27.30,209.0,2.0,0,1,0,22.3
Status,1712570333000,37,36,6,36,1575420030,39.70,195.0,50.0,1,1,0,34.7
Fix,GPS,36.6351492000,29.0834768400,244.741455078125,0.98,3.7900925,27.1,1712570334000,1.0737784,9.458849,6807145694174,3.0,0,,,
Raw,1712570333430,7745794000000,18,,-1396597805636662645,0.07726669311523438,31.214320188155398,-8.227209837262574,14.09685550652454,245,10,0.0,49359,46733364795614,21,31.8,-361.7467956542969,0.3172000050544739,16,0.0,0.0,1598062460,,,,0,,3,0.65,28.8,,,,,,
Raw,1712570333430,7745794000000,18,,-1396597805636662645,0.07726669311523438,31.214320188155398,-8.227209837262574,14.09685550652454,245,9,0.0,49359,46733365910360,14,35.9,289.5535888671875,0.6060000061988831,16,0.0,0.0,1600875010,,,,0,,3,0.65,32.9,,,,,,
Raw,1712570333430,7745794000000,18,,-1396597805636662645,0.07726669311523438,31.214320188155398,-8.227209837262574,14.09685550652454,245,16,0.0,49359,46733352677974,17,33.1,759.4910278320312,0.25130000710487366,16,0.0,0.0,1601437440,,,,0,,3,0.65,30.1,,,,,,
Raw,1712570333430,7745794000000,18,,-1396597805636662645,0.07726669311523438,31.214320188155398,-8.227209837262574,14.09685550652454,245,11,0.0,49359,46733351323084,8,41.2,-773.974609375,0.23770001530647278,16,0.0,0.0,1602000000,,,,0,,3,0.65,38.2,,,,,,
Raw,1712570333430,7745794000000,18,,-1396597805636662645,0.07726669311523438,31.214320188155398,-8.227209837262574,14.09685550652454,245,20,0.0,49359,46733365894623,61,23.3,-122.87165832519531,1.2660000324249268,16,0.0,0.0,1603124990,,,,0,,3,0.65,20.3,,,,,,
Raw,1712570333430,7745794000000,18,,-1396597805636662645,0.07726669311523438,31.214320188155398,-8.227209837262574,14.09685550652454,245,19,0.0,49359,46733359312251,61,23.0,636.9774780273438,1.274999976158142,16,0.0,0.0,1603687550,,,,0,,3,0.65,20.0,,,,,,
Raw,1712570333430,7745794000000,18,,-1396597805636662645,0.07726669311523438,31.214320188155398,-8.227209837262574,14.09685550652454,245,21,0.0,49359,46733353895786,13,36.4,-663.5286254882812,0.24469999969005585,16,0.0,0.0,1604249980,,,,0,,3,0.65,33.4,,,,,,
Raw,1712570333430,7745794000000,18,,-1396597805636662645,0.07726669311523438,31.214320188155398,-8.227209837262574,14.09685550652454,245,5,0.0,81935,122351353274367,19,32.7,-411.72869873046875,0.06080000102519989,16,0.0,0.0,1575420030,,,,0,,1,2.36,29.700000000000003,,,,,,
Raw,1712570333430,7745794000000,18,,-1396597805636662645,0.07726669311523438,31.214320188155398,-8.227209837262574,14.09685550652454,245,11,0.0,81935,122351351049210,17,33.4,602.9847412109375,0.049800001084804535,16,0.0,0.0,1575420030,,,,0,,1,2.36,30.4,,,,,,
Raw,1712570333430,7745794000000,18,,-1396597805636662645,0.07726669311523438,31.214320188155398,-8.227209837262574,14.09685550652454,245,12,0.0,81935,122351357553192,16,34.9,436.6687316894531,0.05220000445842743,16,0.0,0.0,1575420030,,,,0,,1,2.36,31.9,,,,,,
Raw,1712570333430,7745794000000,18,,-1396597805636662645,0.07726669311523438,31.214320188155398,-8.227209837262574,14.09685550652454,245,18,0.0,81935,122351354020753,16,34.7,-623.619384765625,0.047700002789497375,16,0.0,0.0,1575420030,,,,0,,1,2.36,31.700000000000003,,,,,,
Raw,1712570333430,7745794000000,18,,-1396597805636662645,0.07726669311523438,31.214320188155398,-8.227209837262574,14.09685550652454,245,20,0.0,81935,122351353449902,16,34.1,-7.536998271942139,0.04620000347495079,16,0.0,0.0,1575420030,,,,0,,1,2.36,31.1,,,,,,
Raw,1712570333430,7745794000000,18,,-1396597805636662645,0.07726669311523438,31.214320188155398,-8.227209837262574,14.09685550652454,245,25,0.0,81935,122351363550009,13,36.7,150.60743713378906,0.02970000170171261,16,0.0,0.0,1575420030,,,,0,,1,2.36,33.7,,,,,,
Raw,1712570333430,7745794000000,18,,-1396597805636662645,0.07726669311523438,31.214320188155398,-8.227209837262574,14.09685550652454,245,26,0.0,81935,122351347468672,6,43.2,-631.7237548828125,0.03060000017285347,16,0.0,0.0,1575420030,,,,0,,1,2.36,40.2,,,,,,
Raw,1712570333430,7745794000000,18,,-1396597805636662645,0.07726669311523438,31.214320188155398,-8.227209837262574,14.09685550652454,245,28,0.0,81935,122351357486980,8,41.9,-95.82588195800781,0.04670000448822975,16,0.0,0.0,1575420030,,,,0,,1,2.36,38.9,,,,,,
Raw,1712570333430,7745794000000,18,,-1396597805636662645,0.07726669311523438,31.214320188155398,-8.227209837262574,14.09685550652454,245,29,0.0,81935,122351361285905,7,42.6,-72.88163757324219,0.022100001573562622,16,0.0,0.0,1575420030,,,,0,,1,2.36,39.6,,,,,,
Raw,1712570333430,7745794000000,18,,-1396597805636662645,0.07726669311523438,31.214320188155398,-8.227209837262574,14.09685550652454,245,31,0.0,81935,122351352700395,8,41.7,-393.4333801269531,0.03920000419020653,16,0.0,0.0,1575420030,,,,0,,1,2.36,38.7,,,,,,
Raw,1712570333430,7745794000000,18,,-1396597805636662645,0.07726669311523438,31.214320188155398,-8.227209837262574,14.09685550652454,245,5,0.0,16399,122337302904230,18,33.8,-2.6117372512817383,7.706500053405762,16,0.0,0.0,1561097980,,,,0,,5,2.23,27.799999999999997,,,,,,
Raw,1712570333430,7745794000000,18,,-1396597805636662645,0.07726669311523438,31.214320188155398,-8.227209837262574,14.09685550652454,245,8,0.0,16399,122337303604969,16,34.1,-126.03568267822266,0.031200002878904343,16,0.0,0.0,1561097980,,,,0,,5,2.23,28.1,,,,,,
Raw,1712570333430,7745794000000,18,,-1396597805636662645,0.07726669311523438,31.214320188155398,-8.227209837262574,14.09685550652454,245,13,0.0,16399,122337304705725,19,32.4,-188.26388549804688,0.047300003468990326,16,0.0,0.0,1561097980,,,,0,,5,2.23,26.4,,,,,,
Raw,1712570333430,7745794000000,18,,-1396597805636662645,0.07726669311523438,31.214320188155398,-8.227209837262574,14.09685550652454,245,27,0.0,16399,122337356398478,11,38.6,326.01702880859375,0.04690000042319298,16,0.0,0.0,1561097980,,,,0,,5,2.23,32.6,,,,,,
Raw,1712570333430,7745794000000,18,,-1396597805636662645,0.07726669311523438,31.214320188155398,-8.227209837262574,14.09685550652454,245,29,0.0,16399,122337344416104,13,36.2,-515.114013671875,0.031200001016259193,16,0.0,0.0,1561097980,,,,0,,5,2.23,30.200000000000003,,,,,,
Raw,1712570333430,7745794000000,18,,-1396597805636662645,0.07726669311523438,31.214320188155398,-8.227209837262574,14.09685550652454,245,30,0.0,16399,122337357183247,12,37.7,-176.64707946777344,0.049400001764297485,16,0.0,0.0,1561097980,,,,0,,5,2.23,31.700000000000003,,,,,,
Raw,1712570333430,7745794000000,18,,-1396597805636662645,0.07726669311523438,31.214320188155398,-8.227209837262574,14.09685550652454,245,2,0.0,89103,122351346894096,12,37.8,-386.6480712890625,0.06590000540018082,16,0.0,0.0,1575420030,,,,0,,6,2.38,31.799999999999997,,,,,,
Raw,1712570333430,7745794000000,18,,-1396597805636662645,0.07726669311523438,31.214320188155398,-8.227209837262574,14.09685550652454,245,8,0.0,89103,122351334520778,11,38.0,332.14471435546875,0.04990000277757645,16,0.0,0.0,1575420030,,,,0,,6,2.38,32.0,,,,,,
Raw,1712570333430,7745794000000,18,,-1396597805636662645,0.07726669311523438,31.214320188155398,-8.227209837262574,14.09685550652454,245,10,0.0,89103,122351346745199,12,37.4,367.6736755371094,0.05090000107884407,16,0.0,0.0,1575420030,,,,0,,6,2.38,31.4,,,,,,
Raw,1712570333430,7745794000000,18,,-1396597805636662645,0.07726669311523438,31.214320188155398,-8.227209837262574,14.09685550652454,245,11,0.0,89103,122351355121393,24,30.9,105.30042266845703,0.38029998540878296,16,0.0,0.0,1575420030,,,,0,,6,2.38,24.9,,,,,,
Raw,1712570333430,7745794000000,18,,-1396597805636662645,0.07726669311523438,31.214320188155398,-8.227209837262574,14.09685550652454,245,12,0.0,89103,122351339623274,31,28.5,511.8233947753906,0.581000030040741,16,0.0,0.0,1575420030,,,,0,,6,2.38,22.5,,,,,,
Raw,1712570333430,7745794000000,18,,-1396597805636662645,0.07726669311523438,31.214320188155398,-8.227209837262574,14.09685550652454,245,24,0.0,89103,122351343300760,17,33.7,387.7121887207031,0.06180000305175781,16,0.0,0.0,1575420030,,,,0,,6,2.38,27.700000000000003,,,,,,
Raw,1712570333430,7745794000000,18,,-1396597805636662645,0.07726669311523438,31.214320188155398,-8.227209837262574,14.09685550652454,245,25,0.0,89103,122351352813688,12,37.7,1.1407901048660278,0.0478999987244606,16,0.0,0.0,1575420030,,,,0,,6,2.38,31.700000000000003,,,,,,
Raw,1712570333430,7745794000000,18,,-1396597805636662645,0.07726669311523438,31.214320188155398,-8.227209837262574,14.09685550652454,245,36,0.0,89103,122351349229840,17,33.7,-397.3326721191406,0.05880000442266464,16,0.0,0.0,1575420030,,,,0,,6,2.38,27.700000000000003,,,,,,
Fix,FLP,36.6351495000,29.0834769000,244.741455078125,0.97657526,3.9,26.986332,1712570334479,1.0737784,9.458849,6807145694174,3.0,0,,,
Fix,NLP,36.6436413000,29.0821737000,,,2500.0,,1712570331438,,,6804104000000,,0,,,
Status,1712570334000,37,0,1,5,1575420030,39.70,108.0,24.0,1,1,1,34.7
Status,1712570334000,37,1,1,11,1575420030,39.80,42.0,20.0,1,1,1,34.8
Status,1712570334000,37,2,1,12,1575420030,35.70,109.0,42.0,1,1,1,30.7
Status,1712570334000,37,3,1,18,1575420030,39.20,203.0,30.0,1,1,1,34.2
Status,1712570334000,37,4,1,20,1575420030,39.10,71.0,25.0,1,1,1,34.1
Status,1712570334000,37,5,1,25,1575420030,38.90,91.0,74.0,1,1,1,33.9
Status,1712570334000,37,6,1,26,1575420030,44.70,307.0,4.0,1,1,0,39.7
Status,1712570334000,37,7,1,28,1575420030,43.90,285.0,41.0,1,1,1,38.9
Status,1712570334000,37,8,1,29,1575420030,48.10,313.0,65.0,1,1,1,43.1
Status,1712570334000,37,9,1,31,1575420030,50.40,310.0,22.0,1,1,1,45.4
Status,1712570334000,37,10,3,10,1602000000,41.30,329.0,61.0,1,1,1,36.3
Status,1712570334000,37,11,3,9,1602000000,36.20,143.0,67.0,1,1,0,31.2
Status,1712570334000,37,12,3,16,1602000000,25.80,144.0,11.0,1,1,1,20.8
Status,1712570334000,37,13,3,11,1602000000,45.70,326.0,8.0,1,1,0,40.7
Status,1712570334000,37,14,3,20,1602000000,26.30,257.0,70.0,0,1,0,21.3
Status,1712570334000,37,15,3,19,1602000000,34.80,28.0,35.0,1,1,0,29.8
Status,1712570334000,37,16,3,21,1602000000,37.40,226.0,15.0,1,1,1,32.4
Status,1712570334000,37,17,5,2,1561097980,30.20,112.0,18.0,0,1,0,25.2
Status,1712570334000,37,18,5,5,1561097980,39.80,136.0,36.0,1,1,0,34.8
Status,1712570334000,37,19,5,8,1561097980,37.80,64.0,36.0,1,1,1,32.8
Status,1712570334000,37,20,5,10,1561097980,28.00,87.0,14.0,0,1,0,23.0
Status,1712570334000,37,21,5,13,1561097980,37.70,81.0,40.0,1,1,1,32.7
Status,1712570334000,37,22,5,27,1561097980,48.60,39.0,56.0,1,1,1,43.6
Status,1712570334000,37,23,5,29,1561097980,39.40,239.0,11.0,0,1,0,34.4
Status,1712570334000,37,24,5,30,1561097980,41.30,260.0,63.0,1,1,1,36.3
Status,1712570334000,37,25,5,7,1561097980,0.00,0.0,0.0,0,1,0,0.0
Status,1712570334000,37,26,5,28,1561097980,0.00,50.0,11.0,0,1,0,0.0
Status,1712570334000,37,27,2,136,1575420030,36.80,0.0,0.0,0,0,0,31.8
Status,1712570334000,37,28,6,2,1575420030,49.70,313.0,38.0,1,1,0,44.7
Status,1712570334000,37,29,6,8,1575420030,48.10,281.0,1.0,0,1,1,43.1
Status,1712570334000,37,30,6,10,1575420030,43.00,45.0,41.0,1,1,0,38.0
Status,1712570334000,37,31,6,11,1575420030,41.70,68.0,68.0,1,1,1,36.7
Status,1712570334000,37,32,6,12,1575420030,32.70,39.0,17.0,1,1,0,27.7
Status,1712570334000,37,33,6,24,1575420030,40.80,116.0,28.0,1,1,0,35.8
Status,1712570334000,37,34,6,25,1575420030,43.40,57.0,77.0,1,1,0,38.4
Status,1712570334000,37,35,6,34,1575420030,27.30,209.0,2.0,0,1,0,22.3
Status,1712570334000,37,36,6,36,1575420030,33.20,195.0,50.0,1,1,0,28.2
Raw,1712570334430,7746794000000,18,,-1396597805636662648,0.09703445434570312,34.82780448393896,2.9454111762568362,14.146067357193594,245,10,0.0,49359,46734364796841,11,38.3,-361.42242431640625,0.2289000153541565,16,0.0,0.0,1598062460,,,,0,,3,0.56,35.3,,,,,,
Raw,1712570334430,7746794000000,18,,-1396597805636662648,0.09703445434570312,34.82780448393896,2.9454111762568362,14.146067357193594,245,9,0.0,49359,46734365909384,17,33.2,289.2476501464844,0.24080000817775726,16,0.0,0.0,1600875010,,,,0,,3,0.56,30.200000000000003,,,,,,
Raw,1712570334430,7746794000000,18,,-1396597805636662648,0.09703445434570312,34.82780448393896,2.9454111762568362,14.146067357193594,245,16,0.0,49359,46734352675293,70,22.8,758.1778564453125,1.3845000267028809,16,0.0,0.0,1601437440,,,,0,,3,0.56,19.8,,,,,,
Raw,1712570334430,7746794000000,18,,-1396597805636662648,0.09703445434570312,34.82780448393896,2.9454111762568362,14.146067357193594,245,11,0.0,49359,46734351325647,7,42.7,-772.8475952148438,0.2371000051498413,16,0.0,0.0,1602000000,,,,0,,3,0.56,39.7,,,,,,
Raw,1712570334430,7746794000000,18,,-1396597805636662648,0.09703445434570312,34.82780448393896,2.9454111762568362,14.146067357193594,245,19,0.0,49359,46734359310123,21,31.8,637.427978515625,0.33969998359680176,16,0.0,0.0,1603687550,,,,0,,3,0.56,28.8,,,,,,
Raw,1712570334430,7746794000000,18,,-1396597805636662648,0.09703445434570312,34.82780448393896,2.9454111762568362,14.146067357193594,245,21,0.0,49359,46734353897915,16,34.4,-663.5723266601562,0.24619999527931213,16,0.0,0.0,1604249980,,,,0,,3,0.56,31.4,,,,,,
Raw,1712570334430,7746794000000,18,,-1396597805636662648,0.09703445434570312,34.82780448393896,2.9454111762568362,14.146067357193594,245,5,0.0,81935,122352353275746,13,36.7,-412.2451171875,0.044700004160404205,16,0.0,0.0,1575420030,,,,0,,1,2.14,33.7,,,,,,
Raw,1712570334430,7746794000000,18,,-1396597805636662648,0.09703445434570312,34.82780448393896,2.9454111762568362,14.146067357193594,245,11,0.0,81935,122352351047224,13,36.8,603.0972900390625,0.04169999808073044,16,0.0,0.0,1575420030,,,,0,,1,2.14,33.8,,,,,,
Raw,1712570334430,7746794000000,18,,-1396597805636662648,0.09703445434570312,34.82780448393896,2.9454111762568362,14.146067357193594,245,12,0.0,81935,122352357551727,19,32.7,436.1772155761719,0.06680000573396683,16,0.0,0.0,1575420030,,,,0,,1,2.14,29.700000000000003,,,,,,
Raw,1712570334430,7746794000000,18,,-1396597805636662648,0.09703445434570312,34.82780448393896,2.9454111762568362,14.146067357193594,245,18,0.0,81935,122352354022854,13,36.2,-623.5228271484375,0.04619999974966049,16,0.0,0.0,1575420030,,,,0,,1,2.14,33.2,,,,,,
Raw,1712570334430,7746794000000,18,,-1396597805636662648,0.09703445434570312,34.82780448393896,2.9454111762568362,14.146067357193594,245,20,0.0,81935,122352353449921,13,36.1,-7.352572917938232,0.044700004160404205,16,0.0,0.0,1575420030,,,,0,,1,2.14,33.1,,,,,,
Raw,1712570334430,7746794000000,18,,-1396597805636662648,0.09703445434570312,34.82780448393896,2.9454111762568362,14.146067357193594,245,25,0.0,81935,122352363549511,14,35.9,150.8063507080078,0.030300002545118332,16,0.0,0.0,1575420030,,,,0,,1,2.14,32.9,,,,,,
Raw,1712570334430,7746794000000,18,,-1396597805636662648,0.09703445434570312,34.82780448393896,2.9454111762568362,14.146067357193594,245,26,0.0,81935,122352347470869,8,41.7,-630.8450927734375,0.031700000166893005,16,0.0,0.0,1575420030,,,,0,,1,2.14,38.7,,,,,,
Raw,1712570334430,7746794000000,18,,-1396597805636662648,0.09703445434570312,34.82780448393896,2.9454111762568362,14.146067357193594,245,28,0.0,81935,122352357487310,9,40.9,-95.01638793945312,0.0471000038087368,16,0.0,0.0,1575420030,,,,0,,1,2.14,37.9,,,,,,
Raw,1712570334430,7746794000000,18,,-1396597805636662648,0.09703445434570312,34.82780448393896,2.9454111762568362,14.146067357193594,245,29,0.0,81935,122352361286148,5,45.1,-72.40306854248047,0.020900001749396324,16,0.0,0.0,1575420030,,,,0,,1,2.14,42.1,,,,,,
Raw,1712570334430,7746794000000,18,,-1396597805636662648,0.09703445434570312,34.82780448393896,2.9454111762568362,14.146067357193594,245,31,0.0,81935,122352352701720,4,47.4,-392.2944030761719,0.03680000454187393,16,0.0,0.0,1575420030,,,,0,,1,2.14,44.4,,,,,,
Raw,1712570334430,7746794000000,18,,-1396597805636662648,0.09703445434570312,34.82780448393896,2.9454111762568362,14.146067357193594,245,8,0.0,16399,122338303605395,21,31.8,-124.13214874267578,0.11570000648498535,16,0.0,0.0,1561097980,,,,0,,5,2.07,25.8,,,,,,
Raw,1712570334430,7746794000000,18,,-1396597805636662648,0.09703445434570312,34.82780448393896,2.9454111762568362,14.146067357193594,245,10,0.0,16399,122338297771138,73,22.0,56.53642272949219,1.6319999694824219,16,0.0,0.0,1561097980,,,,0,,5,2.07,16.0,,,,,,
Raw,1712570334430,7746794000000,18,,-1396597805636662648,0.09703445434570312,34.82780448393896,2.9454111762568362,14.146067357193594,245,13,0.0,16399,122338304706324,21,31.7,-188.64732360839844,0.11720000207424164,16,0.0,0.0,1561097980,,,,0,,5,2.07,25.7,,,,,,
Raw,1712570334430,7746794000000,18,,-1396597805636662648,0.09703445434570312,34.82780448393896,2.9454111762568362,14.146067357193594,245,27,0.0,16399,122338356397380,7,42.6,326.3357238769531,0.044599998742341995,16,0.0,0.0,1561097980,,,,0,,5,2.07,36.6,,,,,,
Raw,1712570334430,7746794000000,18,,-1396597805636662648,0.09703445434570312,34.82780448393896,2.9454111762568362,14.146067357193594,245,29,0.0,16399,122338344417895,17,33.4,-515.54443359375,0.03930000215768814,16,0.0,0.0,1561097980,,,,0,,5,2.07,27.4,,,,,,
Raw,1712570334430,7746794000000,18,,-1396597805636662648,0.09703445434570312,34.82780448393896,2.9454111762568362,14.146067357193594,245,30,0.0,16399,122338357183844,14,35.3,-176.26365661621094,0.05130000412464142,16,0.0,0.0,1561097980,,,,0,,5,2.07,29.299999999999997,,,,,,
Raw,1712570334430,7746794000000,18,,-1396597805636662648,0.09703445434570312,34.82780448393896,2.9454111762568362,14.146067357193594,245,2,0.0,89103,122352346895393,6,43.7,-385.8811950683594,0.06210000440478325,16,0.0,0.0,1575420030,,,,0,,6,2.18,37.7,,,,,,
Raw,1712570334430,7746794000000,18,,-1396597805636662648,0.09703445434570312,34.82780448393896,2.9454111762568362,14.146067357193594,245,8,0.0,89103,122352334519669,7,42.1,333.052978515625,0.047600001096725464,16,0.0,0.0,1575420030,,,,0,,6,2.18,36.1,,,,,,
Raw,1712570334430,7746794000000,18,,-1396597805636662648,0.09703445434570312,34.82780448393896,2.9454111762568362,14.146067357193594,245,10,0.0,89103,122352346743958,12,37.0,368.1797180175781,0.05090000107884407,16,0.0,0.0,1575420030,,,,0,,6,2.18,31.0,,,,,,
Raw,1712570334430,7746794000000,18,,-1396597805636662648,0.09703445434570312,34.82780448393896,2.9454111762568362,14.146067357193594,245,11,0.0,89103,122352355121003,14,35.7,105.24556732177734,0.05430000275373459,16,0.0,0.0,1575420030,,,,0,,6,2.18,29.700000000000003,,,,,,
Raw,1712570334430,7746794000000,18,,-1396597805636662648,0.09703445434570312,34.82780448393896,2.9454111762568362,14.146067357193594,245,12,0.0,89103,122352339621588,40,26.7,512.2991333007812,0.6889999508857727,16,0.0,0.0,1575420030,,,,0,,6,2.18,20.7,,,,,,
Raw,1712570334430,7746794000000,18,,-1396597805636662648,0.09703445434570312,34.82780448393896,2.9454111762568362,14.146067357193594,245,24,0.0,89103,122352343299459,16,34.8,387.524658203125,0.0552000030875206,16,0.0,0.0,1575420030,,,,0,,6,2.18,28.799999999999997,,,,,,
Raw,1712570334430,7746794000000,18,,-1396597805636662648,0.09703445434570312,34.82780448393896,2.9454111762568362,14.146067357193594,245,25,0.0,89103,122352352813683,12,37.4,1.4353821277618408,0.0478999987244606,16,0.0,0.0,1575420030,,,,0,,6,2.18,31.4,,,,,,
Raw,1712570334430,7746794000000,18,,-1396597805636662648,0.09703445434570312,34.82780448393896,2.9454111762568362,14.146067357193594,245,36,0.0,89103,122352349231163,35,27.2,-397.6281433105469,0.6420000195503235,16,0.0,0.0,1575420030,,,,0,,6,2.18,21.2,,,,,,
Fix,GPS,36.6351522900,29.0834768000,241.9681396484375,0.73,3.7900925,27.5,1712570335000,1.07912,9.031233,6808141990215,3.0,0,,,
Fix,FLP,36.6351531000,29.0834776000,241.9681396484375,0.73325825,3.9,26.91307,1712570335475,1.07912,9.031233,6808141990215,3.0,0,,,
Status,1712570335000,37,0,1,5,1575420030,41.00,108.0,24.0,1,1,1,36.0
Status,1712570335000,37,1,1,11,1575420030,35.90,42.0,20.0,1,1,1,30.9
Status,1712570335000,37,2,1,12,1575420030,42.10,109.0,42.0,1,1,1,37.1
Status,1712570335000,37,3,1,18,1575420030,35.70,203.0,30.0,1,1,1,30.7
Status,1712570335000,37,4,1,20,1575420030,40.10,71.0,25.0,1,1,1,35.1
Status,1712570335000,37,5,1,25,1575420030,39.60,91.0,74.0,1,1,1,34.6
Status,1712570335000,37,6,1,26,1575420030,38.00,307.0,4.0,1,1,0,33.0
Status,1712570335000,37,7,1,28,1575420030,38.00,285.0,41.0,1,1,1,33.0
Status,1712570335000,37,8,1,29,1575420030,44.00,313.0,65.0,1,1,1,39.0
Status,1712570335000,37,9,1,31,1575420030,46.20,310.0,22.0,1,1,1,41.2
Status,1712570335000,37,10,3,10,1602000000,37.40,329.0,61.0,1,1,1,32.4
Status,1712570335000,37,11,3,9,1602000000,37.70,143.0,67.0,1,1,0,32.7
Status,1712570335000,37,12,3,16,1602000000,25.80,144.0,11.0,1,1,1,20.8
Status,1712570335000,37,13,3,11,1602000000,48.00,326.0,8.0,1,1,0,43.0
Status,1712570335000,37,14,3,20,1602000000,26.30,257.0,70.0,0,1,0,21.3
Status,1712570335000,37,15,3,19,1602000000,34.60,28.0,35.0,1,1,0,29.6
Status,1712570335000,37,16,3,21,1602000000,39.10,226.0,15.0,1,1,1,34.1
Status,1712570335000,37,17,5,2,1561097980,33.20,112.0,18.0,0,1,0,28.2
Status,1712570335000,37,18,5,5,1561097980,39.80,136.0,36.0,1,1,0,34.8
Status,1712570335000,37,19,5,8,1561097980,40.00,64.0,36.0,1,1,1,35.0
Status,1712570335000,37,20,5,10,1561097980,30.20,87.0,14.0,0,1,0,25.2
Status,1712570335000,37,21,5,13,1561097980,41.80,81.0,40.0,1,1,1,36.8
Status,1712570335000,37,22,5,27,1561097980,50.50,39.0,56.0,1,1,1,45.5
Status,1712570335000,37,23,5,29,1561097980,44.60,239.0,11.0,0,1,0,39.6
Status,1712570335000,37,24,5,30,1561097980,41.00,260.0,63.0,1,1,1,36.0
Status,1712570335000,37,25,5,7,1561097980,0.00,0.0,0.0,0,1,0,0.0
Status,1712570335000,37,26,5,28,1561097980,0.00,50.0,11.0,0,1,0,0.0
Status,1712570335000,37,27,2,136,1575420030,36.70,0.0,0.0,0,0,0,31.7
Status,1712570335000,37,28,6,2,1575420030,47.00,313.0,38.0,1,1,0,42.0
Status,1712570335000,37,29,6,8,1575420030,41.70,281.0,1.0,0,1,1,36.7
Status,1712570335000,37,30,6,10,1575420030,46.00,45.0,41.0,1,1,0,41.0
Status,1712570335000,37,31,6,11,1575420030,42.90,68.0,68.0,1,1,1,37.9
Status,1712570335000,37,32,6,12,1575420030,32.60,39.0,17.0,1,1,0,27.6
Status,1712570335000,37,33,6,24,1575420030,44.40,116.0,28.0,1,1,0,39.4
Status,1712570335000,37,34,6,25,1575420030,44.10,57.0,77.0,1,1,0,39.1
Status,1712570335000,37,35,6,34,1575420030,27.30,209.0,2.0,0,1,0,22.3
Status,1712570335000,37,36,6,36,1575420030,30.80,195.0,50.0,1,1,0,25.8
Raw,1712570335430,7747794000000,18,,-1396597805636662648,0.0076274871826171875,29.34193253167905,4.253631243308108,12.410555137612047,245,10,0.0,49359,46735364798096,16,34.4,-359.2352600097656,0.23269999027252197,16,0.0,0.0,1598062460,,,,0,,3,0.56,31.4,,,,,,
Raw,1712570335430,7747794000000,18,,-1396597805636662648,0.0076274871826171875,29.34193253167905,4.253631243308108,12.410555137612047,245,9,0.0,49359,46735365908436,16,34.7,291.1866149902344,0.23420000076293945,16,0.0,0.0,1600875010,,,,0,,3,0.56,31.700000000000003,,,,,,
Raw,1712570335430,7747794000000,18,,-1396597805636662648,0.0076274871826171875,29.34193253167905,4.253631243308108,12.410555137612047,245,11,0.0,49359,46735351328227,5,45.0,-770.6196899414062,0.23590001463890076,16,0.0,0.0,1602000000,,,,0,,3,0.56,42.0,,,,,,
Raw,1712570335430,7747794000000,18,,-1396597805636662648,0.0076274871826171875,29.34193253167905,4.253631243308108,12.410555137612047,245,19,0.0,49359,46735359307977,21,31.6,639.4462280273438,0.33969998359680176,16,0.0,0.0,1603687550,,,,0,,3,0.56,28.6,,,,,,
Raw,1712570335430,7747794000000,18,,-1396597805636662648,0.0076274871826171875,29.34193253167905,4.253631243308108,12.410555137612047,245,21,0.0,49359,46735353900107,13,36.1,-662.405029296875,0.24469999969005585,16,0.0,0.0,1604249980,,,,0,,3,0.56,33.1,,,,,,
Raw,1712570335430,7747794000000,18,,-1396597805636662648,0.0076274871826171875,29.34193253167905,4.253631243308108,12.410555137612047,245,5,0.0,81935,122353353277116,11,38.0,-410.4136962890625,0.04240000247955322,16,0.0,0.0,1575420030,,,,0,,1,2.25,35.0,,,,,,
Raw,1712570335430,7747794000000,18,,-1396597805636662648,0.0076274871826171875,29.34193253167905,4.253631243308108,12.410555137612047,245,11,0.0,81935,122353351045192,19,32.9,605.7542114257812,0.05780000239610672,16,0.0,0.0,1575420030,,,,0,,1,2.25,29.9,,,,,,
Raw,1712570335430,7747794000000,18,,-1396597805636662648,0.0076274871826171875,29.34193253167905,4.253631243308108,12.410555137612047,245,12,0.0,81935,122353357550285,10,39.1,437.8076477050781,0.047600001096725464,16,0.0,0.0,1575420030,,,,0,,1,2.25,36.1,,,,,,
Raw,1712570335430,7747794000000,18,,-1396597805636662648,0.0076274871826171875,29.34193253167905,4.253631243308108,12.410555137612047,245,18,0.0,81935,122353354024894,19,32.7,-622.5905151367188,0.062300004065036774,16,0.0,0.0,1575420030,,,,0,,1,2.25,29.700000000000003,,,,,,
Raw,1712570335430,7747794000000,18,,-1396597805636662648,0.0076274871826171875,29.34193253167905,4.253631243308108,12.410555137612047,245,20,0.0,81935,122353353449937,12,37.1,-5.313965320587158,0.04340000078082085,16,0.0,0.0,1575420030,,,,0,,1,2.25,34.1,,,,,,
Raw,1712570335430,7747794000000,18,,-1396597805636662648,0.0076274871826171875,29.34193253167905,4.253631243308108,12.410555137612047,245,25,0.0,81935,122353363549002,13,36.6,152.02395629882812,0.02970000170171261,16,0.0,0.0,1575420030,,,,0,,1,2.25,33.6,,,,,,
Raw,1712570335430,7747794000000,18,,-1396597805636662648,0.0076274871826171875,29.34193253167905,4.253631243308108,12.410555137612047,245,26,0.0,81935,122353347472946,14,35.0,-629.0054931640625,0.03629999980330467,16,0.0,0.0,1575420030,,,,0,,1,2.25,32.0,,,,,,
Raw,1712570335430,7747794000000,18,,-1396597805636662648,0.0076274871826171875,29.34193253167905,4.253631243308108,12.410555137612047,245,28,0.0,81935,122353357487609,14,35.0,-93.00048065185547,0.05130000412464142,16,0.0,0.0,1575420030,,,,0,,1,2.25,32.0,,,,,,
Raw,1712570335430,7747794000000,18,,-1396597805636662648,0.0076274871826171875,29.34193253167905,4.253631243308108,12.410555137612047,245,29,0.0,81935,122353361286390,8,41.0,-70.18815612792969,0.022700000554323196,16,0.0,0.0,1575420030,,,,0,,1,2.25,38.0,,,,,,
Raw,1712570335430,7747794000000,18,,-1396597805636662648,0.0076274871826171875,29.34193253167905,4.253631243308108,12.410555137612047,245,31,0.0,81935,122353352703009,6,43.2,-389.89947509765625,0.03810000419616699,16,0.0,0.0,1575420030,,,,0,,1,2.25,40.2,,,,,,
Raw,1712570335430,7747794000000,18,,-1396597805636662648,0.0076274871826171875,29.34193253167905,4.253631243308108,12.410555137612047,245,2,0.0,16399,122339299059441,91,27.2,-5.674767017364502,16.67889976501465,16,0.0,0.0,1561097980,,,,0,,5,2.01,21.2,,,,,,
Raw,1712570335430,7747794000000,18,,-1396597805636662648,0.0076274871826171875,29.34193253167905,4.253631243308108,12.410555137612047,245,8,0.0,16399,122339303605816,16,34.0,-123.79826354980469,0.3709999918937683,16,0.0,0.0,1561097980,,,,0,,5,2.01,28.0,,,,,,
Raw,1712570335430,7747794000000,18,,-1396597805636662648,0.0076274871826171875,29.34193253167905,4.253631243308108,12.410555137612047,245,10,0.0,16399,122339297770941,53,24.2,58.005531311035156,0.8119999766349792,16,0.0,0.0,1561097980,,,,0,,5,2.01,18.2,,,,,,
Raw,1712570335430,7747794000000,18,,-1396597805636662648,0.0076274871826171875,29.34193253167905,4.253631243308108,12.410555137612047,245,13,0.0,16399,122339304706970,14,35.8,-186.73678588867188,0.03180000185966492,16,0.0,0.0,1561097980,,,,0,,5,2.01,29.799999999999997,,,,,,
Raw,1712570335430,7747794000000,18,,-1396597805636662648,0.0076274871826171875,29.34193253167905,4.253631243308108,12.410555137612047,245,27,0.0,16399,122339356396287,6,44.5,328.42681884765625,0.04360000044107437,16,0.0,0.0,1561097980,,,,0,,5,2.01,38.5,,,,,,
Raw,1712570335430,7747794000000,18,,-1396597805636662648,0.0076274871826171875,29.34193253167905,4.253631243308108,12.410555137612047,245,29,0.0,16399,122339344419553,11,38.6,-513.3355102539062,0.02890000119805336,16,0.0,0.0,1561097980,,,,0,,5,2.01,32.6,,,,,,
Raw,1712570335430,7747794000000,18,,-1396597805636662648,0.0076274871826171875,29.34193253167905,4.253631243308108,12.410555137612047,245,30,0.0,16399,122339357184429,14,35.0,-174.21963500976562,0.05130000412464142,16,0.0,0.0,1561097980,,,,0,,5,2.01,29.0,,,,,,
Raw,1712570335430,7747794000000,18,,-1396597805636662648,0.0076274871826171875,29.34193253167905,4.253631243308108,12.410555137612047,245,2,0.0,89103,122353346896688,8,41.0,-383.8232116699219,0.06320000439882278,16,0.0,0.0,1575420030,,,,0,,6,2.24,35.0,,,,,,
Raw,1712570335430,7747794000000,18,,-1396597805636662648,0.0076274871826171875,29.34193253167905,4.253631243308108,12.410555137612047,245,8,0.0,89103,122353334518541,14,35.7,334.5210876464844,0.052800003439188004,16,0.0,0.0,1575420030,,,,0,,6,2.24,29.700000000000003,,,,,,
Raw,1712570335430,7747794000000,18,,-1396597805636662648,0.0076274871826171875,29.34193253167905,4.253631243308108,12.410555137612047,245,10,0.0,89103,122353346742734,9,40.0,370.0567626953125,0.048600003123283386,16,0.0,0.0,1575420030,,,,0,,6,2.24,34.0,,,,,,
Raw,1712570335430,7747794000000,18,,-1396597805636662648,0.0076274871826171875,29.34193253167905,4.253631243308108,12.410555137612047,245,11,0.0,89103,122353355120659,13,36.9,107.1192626953125,0.053700000047683716,16,0.0,0.0,1575420030,,,,0,,6,2.24,30.9,,,,,,
Raw,1712570335430,7747794000000,18,,-1396597805636662648,0.0076274871826171875,29.34193253167905,4.253631243308108,12.410555137612047,245,12,0.0,89103,122353339619843,40,26.6,513.8975830078125,0.6889999508857727,16,0.0,0.0,1575420030,,,,0,,6,2.24,20.6,,,,,,
Raw,1712570335430,7747794000000,18,,-1396597805636662648,0.0076274871826171875,29.34193253167905,4.253631243308108,12.410555137612047,245,24,0.0,89103,122353343298170,11,38.4,388.86419677734375,0.05140000209212303,16,0.0,0.0,1575420030,,,,0,,6,2.24,32.4,,,,,,
Raw,1712570335430,7747794000000,18,,-1396597805636662648,0.0076274871826171875,29.34193253167905,4.253631243308108,12.410555137612047,245,25,0.0,89103,122353352813678,11,38.1,3.172274589538574,0.04690000042319298,16,0.0,0.0,1575420030,,,,0,,6,2.24,32.1,,,,,,
Raw,1712570335430,7747794000000,18,,-1396597805636662648,0.0076274871826171875,29.34193253167905,4.253631243308108,12.410555137612047,245,36,0.0,89103,122353349232507,53,24.8,-396.0772705078125,0.8119999766349792,16,0.0,0.0,1575420030,,,,0,,6,2.24,18.8,,,,,,
Fix,GPS,36.6351539200,29.0834834200,240.72412109375,0.73,3.7900925,27.3,1712570336000,1.5160805,21.61573,6809134828652,3.0,0,,,
Fix,FLP,36.6351552000,29.0834828000,240.72412109375,0.7259637,3.9,27.216988,1712570336468,1.5160805,21.61573,6809134828652,3.0,0,,,
Status,1712570336000,37,0,1,5,1575420030,40.40,108.0,24.0,1,1,1,35.4
Status,1712570336000,37,1,1,11,1575420030,37.00,42.0,20.0,1,1,1,32.0
Status,1712570336000,37,2,1,12,1575420030,46.30,109.0,42.0,1,1,1,41.3
Status,1712570336000,37,3,1,18,1575420030,31.30,203.0,30.0,1,1,1,26.3
Status,1712570336000,37,4,1,20,1575420030,39.90,71.0,25.0,1,1,1,34.9
Status,1712570336000,37,5,1,25,1575420030,42.50,91.0,74.0,1,1,1,37.5
Status,1712570336000,37,6,1,26,1575420030,37.90,307.0,4.0,1,1,0,32.9
Status,1712570336000,37,7,1,28,1575420030,38.80,285.0,41.0,1,1,1,33.8
Status,1712570336000,37,8,1,29,1575420030,40.80,313.0,65.0,1,1,1,35.8
Status,1712570336000,37,9,1,31,1575420030,38.20,310.0,22.0,1,1,1,33.2
Status,1712570336000,37,10,3,10,1602000000,33.50,329.0,61.0,1,1,1,28.5
Status,1712570336000,37,11,3,9,1602000000,39.10,143.0,67.0,1,1,0,34.1
Status,1712570336000,37,12,3,16,1602000000,26.90,144.0,11.0,1,1,1,21.9
Status,1712570336000,37,13,3,11,1602000000,40.30,326.0,8.0,1,1,0,35.3
Status,1712570336000,37,14,3,20,1602000000,23.20,257.0,70.0,0,1,0,18.2
Status,1712570336000,37,15,3,19,1602000000,32.70,28.0,35.0,1,1,0,27.7
Status,1712570336000,37,16,3,21,1602000000,34.50,226.0,15.0,1,1,1,29.5
Status,1712570336000,37,17,5,2,1561097980,33.20,112.0,18.0,1,1,0,28.2
Status,1712570336000,37,18,5,5,1561097980,41.80,136.0,36.0,1,1,0,36.8
Status,1712570336000,37,19,5,8,1561097980,39.90,64.0,36.0,1,1,1,34.9
Status,1712570336000,37,20,5,10,1561097980,34.10,87.0,14.0,0,1,0,29.1
Status,1712570336000,37,21,5,13,1561097980,44.20,81.0,40.0,1,1,1,39.2
Status,1712570336000,37,22,5,27,1561097980,49.10,39.0,56.0,1,1,1,44.1
Status,1712570336000,37,23,5,29,1561097980,40.20,239.0,11.0,0,1,0,35.2
Status,1712570336000,37,24,5,30,1561097980,40.90,260.0,63.0,1,1,1,35.9
Status,1712570336000,37,25,5,7,1561097980,0.00,0.0,0.0,0,1,0,0.0
Status,1712570336000,37,26,5,28,1561097980,0.00,50.0,11.0,0,1,0,0.0
Status,1712570336000,37,27,2,136,1575420030,37.10,0.0,0.0,0,0,0,32.1
Status,1712570336000,37,28,6,2,1575420030,43.60,313.0,38.0,1,1,0,38.6
Status,1712570336000,37,29,6,8,1575420030,41.30,281.0,1.0,0,1,1,36.3
Status,1712570336000,37,30,6,10,1575420030,46.60,45.0,41.0,1,1,0,41.6
Status,1712570336000,37,31,6,11,1575420030,40.10,68.0,68.0,1,1,1,35.1
Status,1712570336000,37,32,6,12,1575420030,32.60,39.0,17.0,1,1,0,27.6
Status,1712570336000,37,33,6,24,1575420030,39.10,116.0,28.0,1,1,0,34.1
Status,1712570336000,37,34,6,25,1575420030,43.90,57.0,77.0,1,1,0,38.9
Status,1712570336000,37,35,6,34,1575420030,27.30,209.0,2.0,0,1,0,22.3
Status,1712570336000,37,36,6,36,1575420030,33.10,195.0,50.0,1,1,0,28.1
Fix,GPS,36.6351595300,29.0835073700,239.39959716796875,2.13,3.8399134,27.4,1712570337000,1.8811167,35.409428,6810149817819,3.0,0,,,
Raw,1712570336430,7748794000000,18,,-1396597805636662634,0.19353294372558594,30.493258236674592,9.219735246048842,14.600192215631656,245,10,0.0,49359,46736364799253,24,30.5,-364.7250671386719,0.5877999663352966,16,0.0,0.0,1598062460,,,,0,,3,0.52,27.5,,,,,,
Raw,1712570336430,7748794000000,18,,-1396597805636662634,0.19353294372558594,30.493258236674592,9.219735246048842,14.600192215631656,245,9,0.0,49359,46736365907423,13,36.1,285.1059875488281,0.593999981880188,16,0.0,0.0,1600875010,,,,0,,3,0.52,33.1,,,,,,
Raw,1712570336430,7748794000000,18,,-1396597805636662634,0.19353294372558594,30.493258236674592,9.219735246048842,14.600192215631656,245,16,0.0,49359,46736352670377,64,23.9,756.4930419921875,2.0445001125335693,16,0.0,0.0,1601437440,,,,0,,3,0.52,20.9,,,,,,
Raw,1712570336430,7748794000000,18,,-1396597805636662634,0.19353294372558594,30.493258236674592,9.219735246048842,14.600192215631656,245,11,0.0,49359,46736351330801,12,37.3,-776.1301879882812,0.2404000163078308,16,0.0,0.0,1602000000,,,,0,,3,0.52,34.3,,,,,,
Raw,1712570336430,7748794000000,18,,-1396597805636662634,0.19353294372558594,30.493258236674592,9.219735246048842,14.600192215631656,245,20,0.0,49359,46736365895652,103,20.2,-122.2638931274414,3.064000129699707,16,0.0,0.0,1603124990,,,,0,,3,0.52,17.2,,,,,,
Raw,1712570336430,7748794000000,18,,-1396597805636662634,0.19353294372558594,30.493258236674592,9.219735246048842,14.600192215631656,245,19,0.0,49359,46736359305833,27,29.7,634.5659790039062,0.8949999809265137,16,0.0,0.0,1603687550,,,,0,,3,0.52,26.7,,,,,,
Raw,1712570336430,7748794000000,18,,-1396597805636662634,0.19353294372558594,30.493258236674592,9.219735246048842,14.600192215631656,245,21,0.0,49359,46736353902328,21,31.5,-667.8758544921875,0.33070001006126404,16,0.0,0.0,1604249980,,,,0,,3,0.52,28.5,,,,,,
Raw,1712570336430,7748794000000,18,,-1396597805636662634,0.19353294372558594,30.493258236674592,9.219735246048842,14.600192215631656,245,5,0.0,81935,122354353278507,12,37.4,-415.8816223144531,0.04340000078082085,16,0.0,0.0,1575420030,,,,0,,1,2.33,34.4,,,,,,
Raw,1712570336430,7748794000000,18,,-1396597805636662634,0.19353294372558594,30.493258236674592,9.219735246048842,14.600192215631656,245,11,0.0,81935,122354351043193,16,34.0,599.3394165039062,0.4729999899864197,16,0.0,0.0,1575420030,,,,0,,1,2.33,31.0,,,,,,
Raw,1712570336430,7748794000000,18,,-1396597805636662634,0.19353294372558594,30.493258236674592,9.219735246048842,14.600192215631656,245,12,0.0,81935,122354357548839,6,43.3,432.4666748046875,0.045600004494190216,16,0.0,0.0,1575420030,,,,0,,1,2.33,40.3,,,,,,
Raw,1712570336430,7748794000000,18,,-1396597805636662634,0.19353294372558594,30.493258236674592,9.219735246048842,14.600192215631656,245,18,0.0,81935,122354354026959,31,28.3,-627.8644409179688,0.7475000023841858,16,0.0,0.0,1575420030,,,,0,,1,2.33,25.3,,,,,,
Raw,1712570336430,7748794000000,18,,-1396597805636662634,0.19353294372558594,30.493258236674592,9.219735246048842,14.600192215631656,245,20,0.0,81935,122354353449968,13,36.9,-10.525528907775879,0.044700004160404205,16,0.0,0.0,1575420030,,,,0,,1,2.33,33.9,,,,,,
Raw,1712570336430,7748794000000,18,,-1396597805636662634,0.19353294372558594,30.493258236674592,9.219735246048842,14.600192215631656,245,25,0.0,81935,122354363548513,10,39.5,147.02159118652344,0.026600001379847527,16,0.0,0.0,1575420030,,,,0,,1,2.33,36.5,,,,,,
Raw,1712570336430,7748794000000,18,,-1396597805636662634,0.19353294372558594,30.493258236674592,9.219735246048842,14.600192215631656,245,26,0.0,81935,122354347475024,16,34.9,-635.0515747070312,0.03720000013709068,16,0.0,0.0,1575420030,,,,0,,1,2.33,31.9,,,,,,
