# 
# Header Description:
# 
# Version: v3.0.6.4 Platform: 13 Manufacturer: samsung Model: SM-A715F
# 
# Raw,utcTimeMillis,TimeNanos,LeapSecond,TimeUncertaintyNanos,FullBiasNanos,BiasNanos,BiasUncertaintyNanos,DriftNanosPerSecond,DriftUncertaintyNanosPerSecond,HardwareClockDiscontinuityCount,Svid,TimeOffsetNanos,State,ReceivedSvTimeNanos,ReceivedSvTimeUncertaintyNanos,Cn0DbHz,PseudorangeRateMetersPerSecond,PseudorangeRateUncertaintyMetersPerSecond,AccumulatedDeltaRangeState,AccumulatedDeltaRangeMeters,AccumulatedDeltaRangeUncertaintyMeters,CarrierFrequencyHz,CarrierCycles,CarrierPhase,CarrierPhaseUncertainty,MultipathIndicator,SnrInDb,ConstellationType,AgcDb,BasebandCn0DbHz,FullInterSignalBiasNanos,FullInterSignalBiasUncertaintyNanos,SatelliteInterSignalBiasNanos,SatelliteInterSignalBiasUncertaintyNanos,CodeType,ChipsetElapsedRealtimeNanos
# 
# UncalAccel,utcTimeMillis,elapsedRealtimeNanos,UncalAccelXMps2,UncalAccelYMps2,UncalAccelZMps2,BiasXMps2,BiasYMps2,BiasZMps2
# 
# Accel,utcTimeMillis,elapsedRealtimeNanos,AccelXMps2,AccelYMps2,AccelZMps2
# 
# UncalGyro,utcTimeMillis,elapsedRealtimeNanos,UncalGyroXRadPerSec,UncalGyroYRadPerSec,UncalGyroZRadPerSec,DriftXRadPerSec,DriftYRadPerSec,DriftZRadPerSec
# 
# Gyro,utcTimeMillis,elapsedRealtimeNanos,GyroXRadPerSec,GyroYRadPerSec,GyroZRadPerSec
# 
# UncalMag,utcTimeMillis,elapsedRealtimeNanos,UncalMagXMicroT,UncalMagYMicroT,UncalMagZMicroT,BiasXMicroT,BiasYMicroT,BiasZMicroT
# 
# Mag,utcTimeMillis,elapsedRealtimeNanos,MagXMicroT,MagYMicroT,MagZMicroT
# 
# OrientationDeg,utcTimeMillis,elapsedRealtimeNanos,yawDeg,rollDeg,pitchDeg
# 
# Fix,Provider,LatitudeDegrees,LongitudeDegrees,AltitudeMeters,SpeedMps,AccuracyMeters,BearingDegrees,UnixTimeMillis,SpeedAccuracyMps,BearingAccuracyDegrees,elapsedRealtimeNanos,VerticalAccuracyMeters,MockLocation,NumberOfUsedSignals,VerticalSpeedAccuracyMps,SolutionType
# 
# Nav,Svid,Type,Status,MessageId,Sub-messageId,Data(Bytes)
# 
# Status,UnixTimeMillis,SignalCount,SignalIndex,ConstellationType,Svid,CarrierFrequencyHz,Cn0DbHz,AzimuthDegrees,ElevationDegrees,UsedInFix,HasAlmanacData,HasEphemerisData,BasebandCn0DbHz
# 
# Agc,utcTimeMillis,TimeNanos,LeapSecond,TimeUncertaintyNanos,FullBiasNanos,BiasNanos,BiasUncertaintyNanos,DriftNanosPerSecond,DriftUncertaintyNanosPerSecond,HardwareClockDiscontinuityCount,AgcDb,CarrierFrequencyHz,ConstellationType
# 
Fix,FLP,36.6351629000,29.0834181000,230.09999084472656,1.9059185,4.55,118.77028,1712569945469,1.1250777,45.0,6418135750729,15.690587,0,,,
Status,,28,0,1,5,1575420030,32.80,111.0,23.0,1,1,1,27.8
Status,,28,1,1,11,1575420030,39.70,42.0,22.0,1,1,1,34.7
Status,,28,2,1,12,1575420030,41.70,105.0,44.0,1,1,1,36.7
Status,,28,3,1,18,1575420030,39.50,203.0,27.0,1,1,1,34.5
Status,,28,4,1,20,1575420030,40.50,74.0,25.0,1,1,1,35.5
Status,,28,5,1,25,1575420030,29.80,80.0,75.0,1,1,1,24.8
Status,,28,6,1,28,1575420030,37.80,288.0,40.0,1,1,1,32.8
Status,,28,7,1,29,1575420030,34.80,306.0,64.0,1,1,1,29.8
Status,,28,8,1,31,1575420030,30.90,313.0,21.0,1,1,1,25.9
Status,,28,9,3,10,1602000000,31.20,330.0,58.0,0,1,0,26.2
Status,,28,10,3,9,1602000000,34.60,139.0,71.0,1,1,0,29.6
Status,,28,11,3,16,1602000000,30.20,143.0,14.0,1,1,1,25.2
Status,,28,12,3,19,1602000000,25.40,28.0,37.0,1,1,0,20.4
Status,,28,13,3,20,1602000000,0.00,247.0,68.0,0,1,0,0.0
Status,,28,14,5,2,1561097980,32.80,112.0,18.0,1,1,0,27.8
Status,,28,15,5,5,1561097980,43.70,136.0,35.0,1,1,0,38.7
Status,,28,16,5,8,1561097980,40.20,66.0,35.0,1,1,0,35.2
Status,,28,17,5,10,1561097980,30.90,85.0,14.0,1,1,0,25.9
Status,,28,18,5,13,1561097980,40.70,82.0,40.0,1,1,1,35.7
Status,,28,19,5,27,1561097980,43.60,37.0,59.0,0,1,0,38.6
Status,,28,20,5,30,1561097980,35.30,254.0,61.0,1,1,1,30.3
Status,,28,21,6,2,1575420030,38.60,312.0,37.0,1,1,0,33.6
Status,,28,22,6,10,1575420030,44.20,46.0,43.0,1,1,0,39.2
Status,,28,23,6,11,1575420030,25.70,75.0,68.0,1,1,1,20.7
Status,,28,24,6,12,1575420030,26.90,39.0,19.0,1,1,0,21.9
Status,,28,25,6,24,1575420030,41.90,113.0,30.0,1,1,0,36.9
Status,,28,26,6,25,1575420030,36.70,46.0,77.0,1,1,0,31.7
Status,,28,27,6,36,1575420030,37.70,194.0,47.0,1,1,0,32.7
Raw,1712569945437,7357801000000,18,,-1396597805636074928,-0.5072088241577148,52.056846470804885,-24.55494955553249,11.757861893226147,165,10,0.0,49359,46345370709317,31,28.2,-414.9092712402344,0.9414999485015869,16,0.0,0.0,1598062460,,,,0,,3,0.25,25.2,,,,,,
Raw,1712569945437,7357801000000,18,,-1396597805636074928,-0.5072088241577148,52.056846470804885,-24.55494955553249,11.757861893226147,165,9,0.0,49359,46345372660137,21,31.6,224.63211059570312,0.32919999957084656,16,0.0,0.0,1600875010,,,,0,,3,0.25,28.6,,,,,,
Raw,1712569945437,7357801000000,18,,-1396597805636074928,-0.5072088241577148,52.056846470804885,-24.55494955553249,11.757861893226147,165,16,0.0,49359,46345360059455,35,27.2,730.911865234375,0.9864999651908875,16,0.0,0.0,1601437440,,,,0,,3,0.25,24.2,,,,,,
Raw,1712569945437,7357801000000,18,,-1396597805636074928,-0.5072088241577148,52.056846470804885,-24.55494955553249,11.757861893226147,165,5,0.0,81935,121963359134194,27,29.8,-448.2082214355469,0.6949999928474426,16,0.0,0.0,1575420030,,,,0,,1,1.57,26.8,,,,,,
Raw,1712569945437,7357801000000,18,,-1396597805636074928,-0.5072088241577148,52.056846470804885,-24.55494955553249,11.757861893226147,165,11,0.0,81935,121963358228357,13,36.7,573.6553955078125,0.05220000445842743,16,0.0,0.0,1575420030,,,,0,,1,1.57,33.7,,,,,,
Raw,1712569945437,7357801000000,18,,-1396597805636074928,-0.5072088241577148,52.056846470804885,-24.55494955553249,11.757861893226147,165,12,0.0,81935,121963364512357,11,38.7,400.99847412109375,0.02890000119805336,16,0.0,0.0,1575420030,,,,0,,1,1.57,35.7,,,,,,
Raw,1712569945437,7357801000000,18,,-1396597805636074928,-0.5072088241577148,52.056846470804885,-24.55494955553249,11.757861893226147,165,18,0.0,81935,121963359610947,13,36.5,-653.4122314453125,0.02370000071823597,16,0.0,0.0,1575420030,,,,0,,1,1.57,33.5,,,,,,
Raw,1712569945437,7357801000000,18,,-1396597805636074928,-0.5072088241577148,52.056846470804885,-24.55494955553249,11.757861893226147,165,20,0.0,81935,121963359824079,12,37.5,-59.42100524902344,0.02240000106394291,16,0.0,0.0,1575420030,,,,0,,1,1.57,34.5,,,,,,
Raw,1712569945437,7357801000000,18,,-1396597805636074928,-0.5072088241577148,52.056846470804885,-24.55494955553249,11.757861893226147,165,25,0.0,81935,121963370132798,40,26.8,104.70909118652344,0.8614999651908875,16,0.0,0.0,1575420030,,,,0,,1,1.57,23.8,,,,,,
Raw,1712569945437,7357801000000,18,,-1396597805636074928,-0.5072088241577148,52.056846470804885,-24.55494955553249,11.757861893226147,165,28,0.0,81935,121963363742527,16,34.8,-153.8518829345703,0.031200002878904343,16,0.0,0.0,1575420030,,,,0,,1,1.57,31.799999999999997,,,,,,
Raw,1712569945437,7357801000000,18,,-1396597805636074928,-0.5072088241577148,52.056846470804885,-24.55494955553249,11.757861893226147,165,29,0.0,81935,121963367588305,21,31.8,-104.64093780517578,0.12170000374317169,16,0.0,0.0,1575420030,,,,0,,1,1.57,28.8,,,,,,
Raw,1712569945437,7357801000000,18,,-1396597805636074928,-0.5072088241577148,52.056846470804885,-24.55494955553249,11.757861893226147,165,31,0.0,81935,121963358578014,35,27.9,-440.64404296875,0.8134999871253967,16,0.0,0.0,1575420030,,,,0,,1,1.57,24.9,,,,,,
Raw,1712569945437,7357801000000,18,,-1396597805636074928,-0.5072088241577148,52.056846470804885,-24.55494955553249,11.757861893226147,165,5,0.0,16399,121949309308514,12,37.7,-12.405750274658203,5.520500183105469,16,0.0,0.0,1561097980,,,,0,,5,1.28,31.700000000000003,,,,,,
Raw,1712569945437,7357801000000,18,,-1396597805636074928,-0.5072088241577148,52.056846470804885,-24.55494955553249,11.757861893226147,165,8,0.0,16399,121949309842304,16,34.2,-152.23236083984375,0.04020000249147415,16,0.0,0.0,1561097980,,,,0,,5,1.28,28.200000000000003,,,,,,
Raw,1712569945437,7357801000000,18,,-1396597805636074928,-0.5072088241577148,52.056846470804885,-24.55494955553249,11.757861893226147,165,13,0.0,16399,121949310863690,16,34.7,-212.53567504882812,0.04170000180602074,16,0.0,0.0,1561097980,,,,0,,5,1.28,28.700000000000003,,,,,,
Raw,1712569945437,7357801000000,18,,-1396597805636074928,-0.5072088241577148,52.056846470804885,-24.55494955553249,11.757861893226147,165,27,0.0,16399,121949363219911,12,37.6,297.96563720703125,0.028400002047419548,16,0.0,0.0,1561097980,,,,0,,5,1.28,31.6,,,,,,
Raw,1712569945437,7357801000000,18,,-1396597805636074928,-0.5072088241577148,52.056846470804885,-24.55494955553249,11.757861893226147,165,30,0.0,16399,121949363348201,27,29.3,-212.66453552246094,0.531000018119812,16,0.0,0.0,1561097980,,,,0,,5,1.28,23.3,,,,,,
Raw,1712569945437,7357801000000,18,,-1396597805636074928,-0.5072088241577148,52.056846470804885,-24.55494955553249,11.757861893226147,165,2,0.0,89103,121963352800934,19,32.6,-401.5310363769531,0.06530000269412994,16,0.0,0.0,1575420030,,,,0,,6,1.54,26.6,,,,,,
Raw,1712569945437,7357801000000,18,,-1396597805636074928,-0.5072088241577148,52.056846470804885,-24.55494955553249,11.757861893226147,165,10,0.0,89103,121963353617834,11,38.2,335.65509033203125,0.04840000346302986,16,0.0,0.0,1575420030,,,,0,,6,1.54,32.2,,,,,,
Raw,1712569945437,7357801000000,18,,-1396597805636074928,-0.5072088241577148,52.056846470804885,-24.55494955553249,11.757861893226147,165,24,0.0,89103,121963350204201,14,35.9,364.0093994140625,0.052800003439188004,16,0.0,0.0,1575420030,,,,0,,6,1.54,29.9,,,,,,
Raw,1712569945437,7357801000000,18,,-1396597805636074928,-0.5072088241577148,52.056846470804885,-24.55494955553249,11.757861893226147,165,25,0.0,89103,121963359213660,24,30.7,-27.38178825378418,0.41030001640319824,16,0.0,0.0,1575420030,,,,0,,6,1.54,24.7,,,,,,
Raw,1712569945437,7357801000000,18,,-1396597805636074928,-0.5072088241577148,52.056846470804885,-24.55494955553249,11.757861893226147,165,36,0.0,89103,121963355109355,21,31.7,-432.2336730957031,0.1396999955177307,16,0.0,0.0,1575420030,,,,0,,6,1.54,25.7,,,,,,
Fix,GPS,36.6351525600,29.0834349800,252.12567138671875,0.19,3.7900925,157.1,1712569946000,1.1819053,94.18884,6419139745624,6.0,0,,,
Fix,FLP,36.6351532000,29.0834340000,230.09999084472656,0.20200458,4.42,156.98178,1712569946473,1.1819053,94.18884,6419139745624,15.700627,0,,,
Status,1712569946000,28,0,1,5,1575420030,32.80,111.0,23.0,1,1,1,27.8
Status,1712569946000,28,1,1,11,1575420030,39.80,42.0,22.0,1,1,1,34.8
Status,1712569946000,28,2,1,12,1575420030,42.00,105.0,44.0,1,1,1,37.0
Status,1712569946000,28,3,1,18,1575420030,39.70,203.0,27.0,1,1,1,34.7
Status,1712569946000,28,4,1,20,1575420030,39.40,74.0,25.0,1,1,1,34.4
Status,1712569946000,28,5,1,25,1575420030,32.80,80.0,75.0,1,1,1,27.8
Status,1712569946000,28,6,1,28,1575420030,37.80,288.0,40.0,1,1,1,32.8
Status,1712569946000,28,7,1,29,1575420030,36.00,306.0,64.0,1,1,1,31.0
Status,1712569946000,28,8,1,31,1575420030,30.70,313.0,21.0,1,1,1,25.7
Status,1712569946000,28,9,3,10,1602000000,31.90,330.0,58.0,0,1,0,26.9
Status,1712569946000,28,10,3,9,1602000000,35.30,139.0,71.0,1,1,0,30.3
Status,1712569946000,28,11,3,16,1602000000,31.10,143.0,14.0,1,1,1,26.1
Status,1712569946000,28,12,3,19,1602000000,25.40,28.0,37.0,1,1,0,20.4
Status,1712569946000,28,13,3,20,1602000000,0.00,247.0,68.0,0,1,0,0.0
Status,1712569946000,28,14,5,2,1561097980,32.80,112.0,18.0,1,1,0,27.8
Status,1712569946000,28,15,5,5,1561097980,43.90,136.0,35.0,1,1,0,38.9
Status,1712569946000,28,16,5,8,1561097980,39.20,66.0,35.0,1,1,0,34.2
Status,1712569946000,28,17,5,10,1561097980,30.90,85.0,14.0,1,1,0,25.9
Status,1712569946000,28,18,5,13,1561097980,40.10,82.0,40.0,1,1,1,35.1
Status,1712569946000,28,19,5,27,1561097980,42.10,37.0,59.0,0,1,0,37.1
Status,1712569946000,28,20,5,30,1561097980,36.80,254.0,61.0,1,1,1,31.8
Status,1712569946000,28,21,6,2,1575420030,37.80,312.0,37.0,1,1,0,32.8
Status,1712569946000,28,22,6,10,1575420030,43.50,46.0,43.0,1,1,0,38.5
Status,1712569946000,28,23,6,11,1575420030,25.70,75.0,68.0,1,1,1,20.7
Status,1712569946000,28,24,6,12,1575420030,26.90,39.0,19.0,1,1,0,21.9
Status,1712569946000,28,25,6,24,1575420030,41.20,113.0,30.0,1,1,0,36.2
Status,1712569946000,28,26,6,25,1575420030,38.00,46.0,77.0,1,1,0,33.0
Status,1712569946000,28,27,6,36,1575420030,37.40,194.0,47.0,1,1,0,32.4
Raw,1712569946437,7358801000000,18,,-1396597805636074964,-0.955449104309082,56.11618689727038,-28.362733201904856,18.670010675404882,165,10,0.0,49359,46346370710641,31,28.9,-414.1307678222656,0.9414999485015869,16,0.0,0.0,1598062460,,,,0,,3,0.35,25.9,,,,,,
Raw,1712569946437,7358801000000,18,,-1396597805636074964,-0.955449104309082,56.11618689727038,-28.362733201904856,18.670010675404882,165,9,0.0,49359,46346372659397,19,32.3,225.92562866210938,0.25929999351501465,16,0.0,0.0,1600875010,,,,0,,3,0.35,29.299999999999997,,,,,,
Raw,1712569946437,7358801000000,18,,-1396597805636074964,-0.955449104309082,56.11618689727038,-28.362733201904856,18.670010675404882,165,16,0.0,49359,46346360056816,31,28.1,732.5311889648438,0.9264999628067017,16,0.0,0.0,1601437440,,,,0,,3,0.35,25.1,,,,,,
Raw,1712569946437,7358801000000,18,,-1396597805636074964,-0.955449104309082,56.11618689727038,-28.362733201904856,18.670010675404882,165,5,0.0,81935,121964359135709,27,29.8,-447.9132385253906,0.6949999928474426,16,0.0,0.0,1575420030,,,,0,,1,1.62,26.8,,,,,,
Raw,1712569946437,7358801000000,18,,-1396597805636074964,-0.955449104309082,56.11618689727038,-28.362733201904856,18.670010675404882,165,11,0.0,81935,121964358226480,13,36.8,574.686767578125,0.05220000445842743,16,0.0,0.0,1575420030,,,,0,,1,1.62,33.8,,,,,,
Raw,1712569946437,7358801000000,18,,-1396597805636074964,-0.955449104309082,56.11618689727038,-28.362733201904856,18.670010675404882,165,12,0.0,81935,121964364511017,10,39.0,402.1732177734375,0.02810000069439411,16,0.0,0.0,1575420030,,,,0,,1,1.62,36.0,,,,,,
Raw,1712569946437,7358801000000,18,,-1396597805636074964,-0.955449104309082,56.11618689727038,-28.362733201904856,18.670010675404882,165,18,0.0,81935,121964359613109,13,36.7,-652.189453125,0.02370000071823597,16,0.0,0.0,1575420030,,,,0,,1,1.62,33.7,,,,,,
Raw,1712569946437,7358801000000,18,,-1396597805636074964,-0.955449104309082,56.11618689727038,-28.362733201904856,18.670010675404882,165,20,0.0,81935,121964359824306,13,36.4,-58.25220489501953,0.02370000071823597,16,0.0,0.0,1575420030,,,,0,,1,1.62,33.4,,,,,,
Raw,1712569946437,7358801000000,18,,-1396597805636074964,-0.955449104309082,56.11618689727038,-28.362733201904856,18.670010675404882,165,25,0.0,81935,121964370132406,27,29.8,107.14485168457031,0.6814999580383301,16,0.0,0.0,1575420030,,,,0,,1,1.62,26.8,,,,,,
Raw,1712569946437,7358801000000,18,,-1396597805636074964,-0.955449104309082,56.11618689727038,-28.362733201904856,18.670010675404882,165,28,0.0,81935,121964363743010,16,34.8,-152.6054229736328,0.031200002878904343,16,0.0,0.0,1575420030,,,,0,,1,1.62,31.799999999999997,,,,,,
Raw,1712569946437,7358801000000,18,,-1396597805636074964,-0.955449104309082,56.11618689727038,-28.362733201904856,18.670010675404882,165,29,0.0,81935,121964367588677,17,33.0,-103.6308822631836,0.043800000101327896,16,0.0,0.0,1575420030,,,,0,,1,1.62,30.0,,,,,,
Raw,1712569946437,7358801000000,18,,-1396597805636074964,-0.955449104309082,56.11618689727038,-28.362733201904856,18.670010675404882,165,31,0.0,81935,121964358579460,35,27.7,-440.4061584472656,0.8134999871253967,16,0.0,0.0,1575420030,,,,0,,1,1.62,24.7,,,,,,
Raw,1712569946437,7358801000000,18,,-1396597805636074964,-0.955449104309082,56.11618689727038,-28.362733201904856,18.670010675404882,165,5,0.0,16399,121950309308570,12,37.9,-12.424956321716309,5.520500183105469,16,0.0,0.0,1561097980,,,,0,,5,1.46,31.9,,,,,,
Raw,1712569946437,7358801000000,18,,-1396597805636074964,-0.955449104309082,56.11618689727038,-28.362733201904856,18.670010675404882,165,8,0.0,16399,121950309842803,17,33.2,-151.0723876953125,0.046800002455711365,16,0.0,0.0,1561097980,,,,0,,5,1.46,27.200000000000003,,,,,,
Raw,1712569946437,7358801000000,18,,-1396597805636074964,-0.955449104309082,56.11618689727038,-28.362733201904856,18.670010675404882,165,13,0.0,16399,121950310864395,16,34.1,-211.39527893066406,0.04170000180602074,16,0.0,0.0,1561097980,,,,0,,5,1.46,28.1,,,,,,
Raw,1712569946437,7358801000000,18,,-1396597805636074964,-0.955449104309082,56.11618689727038,-28.362733201904856,18.670010675404882,165,27,0.0,16399,121950363218925,13,36.1,299.1512756347656,0.02970000170171261,16,0.0,0.0,1561097980,,,,0,,5,1.46,30.1,,,,,,
Raw,1712569946437,7358801000000,18,,-1396597805636074964,-0.955449104309082,56.11618689727038,-28.362733201904856,18.670010675404882,165,30,0.0,16399,121950363348885,24,30.8,-211.36827087402344,0.5009999871253967,16,0.0,0.0,1561097980,,,,0,,5,1.46,24.8,,,,,,
Raw,1712569946437,7358801000000,18,,-1396597805636074964,-0.955449104309082,56.11618689727038,-28.362733201904856,18.670010675404882,165,2,0.0,89103,121964352802280,21,31.8,-401.0285339355469,0.13519999384880066,16,0.0,0.0,1575420030,,,,0,,6,1.61,25.8,,,,,,
Raw,1712569946437,7358801000000,18,,-1396597805636074964,-0.955449104309082,56.11618689727038,-28.362733201904856,18.670010675404882,165,10,0.0,89103,121964353616723,12,37.5,336.2070007324219,0.049400001764297485,16,0.0,0.0,1575420030,,,,0,,6,1.61,31.5,,,,,,
Raw,1712569946437,7358801000000,18,,-1396597805636074964,-0.955449104309082,56.11618689727038,-28.362733201904856,18.670010675404882,165,24,0.0,89103,121964350202993,14,35.2,364.5311584472656,0.052800003439188004,16,0.0,0.0,1575420030,,,,0,,6,1.61,29.200000000000003,,,,,,
Raw,1712569946437,7358801000000,18,,-1396597805636074964,-0.955449104309082,56.11618689727038,-28.362733201904856,18.670010675404882,165,25,0.0,89103,121964359213747,19,32.0,-26.917240142822266,0.06980000436306,16,0.0,0.0,1575420030,,,,0,,6,1.61,26.0,,,,,,
Raw,1712569946437,7358801000000,18,,-1396597805636074964,-0.955449104309082,56.11618689727038,-28.362733201904856,18.670010675404882,165,36,0.0,89103,121964355110821,21,31.4,-431.7206726074219,0.1396999955177307,16,0.0,0.0,1575420030,,,,0,,6,1.61,25.4,,,,,,
Fix,GPS,36.6351524500,29.0834499200,250.93658447265625,0.0,3.7900925,,1712569947000,1.1250777,,6420142029894,6.0,0,,,
Fix,FLP,36.6351524000,29.0834476000,230.09999084472656,0.20274499,4.071,155.21594,1712569947475,1.1250777,45.0,6420142029894,15.71065,0,,,
Status,1712569947000,28,0,1,5,1575420030,32.30,111.0,23.0,1,1,1,27.3
Status,1712569947000,28,1,1,11,1575420030,40.00,42.0,22.0,1,1,1,35.0
Status,1712569947000,28,2,1,12,1575420030,41.80,105.0,44.0,1,1,1,36.8
Status,1712569947000,28,3,1,18,1575420030,40.40,203.0,27.0,1,1,1,35.4
Status,1712569947000,28,4,1,20,1575420030,39.50,74.0,25.0,1,1,1,34.5
Status,1712569947000,28,5,1,25,1575420030,34.60,80.0,75.0,1,1,1,29.6
Status,1712569947000,28,6,1,28,1575420030,36.90,288.0,40.0,1,1,1,31.9
Status,1712569947000,28,7,1,29,1575420030,38.50,306.0,64.0,1,1,1,33.5
Status,1712569947000,28,8,1,31,1575420030,30.70,313.0,21.0,1,1,1,25.7
Status,1712569947000,28,9,3,10,1602000000,31.90,330.0,58.0,0,1,0,26.9
Status,1712569947000,28,10,3,9,1602000000,35.30,139.0,71.0,1,1,0,30.3
Status,1712569947000,28,11,3,16,1602000000,30.70,143.0,14.0,1,1,1,25.7
Status,1712569947000,28,12,3,19,1602000000,29.80,28.0,37.0,1,1,0,24.8
Status,1712569947000,28,13,3,20,1602000000,0.00,247.0,68.0,0,1,0,0.0
Status,1712569947000,28,14,5,2,1561097980,32.80,112.0,18.0,1,1,0,27.8
Status,1712569947000,28,15,5,5,1561097980,44.10,136.0,35.0,1,1,0,39.1
Status,1712569947000,28,16,5,8,1561097980,39.40,66.0,35.0,1,1,0,34.4
Status,1712569947000,28,17,5,10,1561097980,30.90,85.0,14.0,1,1,0,25.9
Status,1712569947000,28,18,5,13,1561097980,40.20,82.0,40.0,1,1,1,35.2
Status,1712569947000,28,19,5,27,1561097980,43.60,37.0,59.0,0,1,0,38.6
Status,1712569947000,28,20,5,30,1561097980,38.90,254.0,61.0,1,1,1,33.9
Status,1712569947000,28,21,6,2,1575420030,37.60,312.0,37.0,1,1,0,32.6
Status,1712569947000,28,22,6,10,1575420030,43.50,46.0,43.0,1,1,0,38.5
Status,1712569947000,28,23,6,11,1575420030,32.60,75.0,68.0,1,1,1,27.6
Status,1712569947000,28,24,6,12,1575420030,26.90,39.0,19.0,1,1,0,21.9
Status,1712569947000,28,25,6,24,1575420030,41.50,113.0,30.0,1,1,0,36.5
Status,1712569947000,28,26,6,25,1575420030,39.20,46.0,77.0,1,1,0,34.2
Status,1712569947000,28,27,6,36,1575420030,39.30,194.0,47.0,1,1,0,34.3
Raw,1712569947437,7359801000000,18,,-1396597805636074992,-0.10536479949951172,52.49349487712607,-24.752286849934823,15.565857879031748,165,10,0.0,49359,46347370711960,31,28.9,-411.7295227050781,0.9414999485015869,16,0.0,0.0,1598062460,,,,0,,3,0.79,25.9,,,,,,
Raw,1712569947437,7359801000000,18,,-1396597805636074992,-0.10536479949951172,52.49349487712607,-24.752286849934823,15.565857879031748,165,9,0.0,49359,46347372658640,19,32.3,228.5646209716797,0.25929999351501465,16,0.0,0.0,1600875010,,,,0,,3,0.79,29.299999999999997,,,,,,
Raw,1712569947437,7359801000000,18,,-1396597805636074992,-0.10536479949951172,52.49349487712607,-24.752286849934823,15.565857879031748,165,16,0.0,49359,46347360054456,35,27.7,734.86181640625,0.9864999651908875,16,0.0,0.0,1601437440,,,,0,,3,0.79,24.7,,,,,,
Raw,1712569947437,7359801000000,18,,-1396597805636074992,-0.10536479949951172,52.49349487712607,-24.752286849934823,15.565857879031748,165,19,0.0,49359,46347366531842,40,26.8,612.3388671875,1.034500002861023,16,0.0,0.0,1603687550,,,,0,,3,0.79,23.8,,,,,,
Raw,1712569947437,7359801000000,18,,-1396597805636074992,-0.10536479949951172,52.49349487712607,-24.752286849934823,15.565857879031748,165,5,0.0,81935,121965359137119,27,29.3,-444.9827575683594,0.6949999928474426,16,0.0,0.0,1575420030,,,,0,,1,1.79,26.3,,,,,,
Raw,1712569947437,7359801000000,18,,-1396597805636074992,-0.10536479949951172,52.49349487712607,-24.752286849934823,15.565857879031748,165,11,0.0,81935,121965358224517,12,37.0,577.2611083984375,0.05090000107884407,16,0.0,0.0,1575420030,,,,0,,1,1.79,34.0,,,,,,
Raw,1712569947437,7359801000000,18,,-1396597805636074992,-0.10536479949951172,52.49349487712607,-24.752286849934823,15.565857879031748,165,12,0.0,81935,121965364509704,11,38.8,404.71539306640625,0.02890000119805336,16,0.0,0.0,1575420030,,,,0,,1,1.79,35.8,,,,,,
Raw,1712569947437,7359801000000,18,,-1396597805636074992,-0.10536479949951172,52.49349487712607,-24.752286849934823,15.565857879031748,165,18,0.0,81935,121965359615301,12,37.4,-649.6810913085938,0.02240000106394291,16,0.0,0.0,1575420030,,,,0,,1,1.79,34.4,,,,,,
Raw,1712569947437,7359801000000,18,,-1396597805636074992,-0.10536479949951172,52.49349487712607,-24.752286849934823,15.565857879031748,165,20,0.0,81935,121965359824457,13,36.5,-55.60154724121094,0.02370000071823597,16,0.0,0.0,1575420030,,,,0,,1,1.79,33.5,,,,,,
Raw,1712569947437,7359801000000,18,,-1396597805636074992,-0.10536479949951172,52.49349487712607,-24.752286849934823,15.565857879031748,165,25,0.0,81935,121965370132069,21,31.6,109.41030883789062,0.12620000541210175,16,0.0,0.0,1575420030,,,,0,,1,1.79,28.6,,,,,,
Raw,1712569947437,7359801000000,18,,-1396597805636074992,-0.10536479949951172,52.49349487712607,-24.752286849934823,15.565857879031748,165,28,0.0,81935,121965363743520,17,33.9,-149.95562744140625,0.03779999911785126,16,0.0,0.0,1575420030,,,,0,,1,1.79,30.9,,,,,,
Raw,1712569947437,7359801000000,18,,-1396597805636074992,-0.10536479949951172,52.49349487712607,-24.752286849934823,15.565857879031748,165,29,0.0,81935,121965367589001,14,35.5,-101.03568267822266,0.03629999980330467,16,0.0,0.0,1575420030,,,,0,,1,1.79,32.5,,,,,,
Raw,1712569947437,7359801000000,18,,-1396597805636074992,-0.10536479949951172,52.49349487712607,-24.752286849934823,15.565857879031748,165,5,0.0,16399,121951309308614,11,38.1,-10.994260787963867,5.3292999267578125,16,0.0,0.0,1561097980,,,,0,,5,1.63,32.1,,,,,,
Raw,1712569947437,7359801000000,18,,-1396597805636074992,-0.10536479949951172,52.49349487712607,-24.752286849934823,15.565857879031748,165,8,0.0,16399,121951309843301,17,33.4,-148.54617309570312,0.046800002455711365,16,0.0,0.0,1561097980,,,,0,,5,1.63,27.4,,,,,,
Raw,1712569947437,7359801000000,18,,-1396597805636074992,-0.10536479949951172,52.49349487712607,-24.752286849934823,15.565857879031748,165,13,0.0,16399,121951310865093,16,34.2,-208.8177032470703,0.04170000180602074,16,0.0,0.0,1561097980,,,,0,,5,1.63,28.200000000000003,,,,,,
Raw,1712569947437,7359801000000,18,,-1396597805636074992,-0.10536479949951172,52.49349487712607,-24.752286849934823,15.565857879031748,165,27,0.0,16399,121951363217915,12,37.6,301.689697265625,0.028400002047419548,16,0.0,0.0,1561097980,,,,0,,5,1.63,31.6,,,,,,
Raw,1712569947437,7359801000000,18,,-1396597805636074992,-0.10536479949951172,52.49349487712607,-24.752286849934823,15.565857879031748,165,30,0.0,16399,121951363349611,19,32.9,-209.09347534179688,0.04580000042915344,16,0.0,0.0,1561097980,,,,0,,5,1.63,26.9,,,,,,
Raw,1712569947437,7359801000000,18,,-1396597805636074992,-0.10536479949951172,52.49349487712607,-24.752286849934823,15.565857879031748,165,2,0.0,89103,121965352803601,21,31.6,-398.3168029785156,0.13519999384880066,16,0.0,0.0,1575420030,,,,0,,6,1.74,25.6,,,,,,
Raw,1712569947437,7359801000000,18,,-1396597805636074992,-0.10536479949951172,52.49349487712607,-24.752286849934823,15.565857879031748,165,10,0.0,89103,121965353615589,12,37.5,338.9700927734375,0.049400001764297485,16,0.0,0.0,1575420030,,,,0,,6,1.74,31.5,,,,,,
Raw,1712569947437,7359801000000,18,,-1396597805636074992,-0.10536479949951172,52.49349487712607,-24.752286849934823,15.565857879031748,165,11,0.0,89103,121965361647211,40,26.6,66.52666473388672,0.6620000004768372,16,0.0,0.0,1575420030,,,,0,,6,1.74,20.6,,,,,,
Raw,1712569947437,7359801000000,18,,-1396597805636074992,-0.10536479949951172,52.49349487712607,-24.752286849934823,15.565857879031748,165,24,0.0,89103,121965350201762,14,35.5,367.2258605957031,0.052800003439188004,16,0.0,0.0,1575420030,,,,0,,6,1.74,29.5,,,,,,
Raw,1712569947437,7359801000000,18,,-1396597805636074992,-0.10536479949951172,52.49349487712607,-24.752286849934823,15.565857879031748,165,25,0.0,89103,121965359213830,17,33.2,-24.088199615478516,0.06180000305175781,16,0.0,0.0,1575420030,,,,0,,6,1.74,27.200000000000003,,,,,,
Raw,1712569947437,7359801000000,18,,-1396597805636074992,-0.10536479949951172,52.49349487712607,-24.752286849934823,15.565857879031748,165,36,0.0,89103,121965355112229,17,33.3,-428.9244384765625,0.06180000305175781,16,0.0,0.0,1575420030,,,,0,,6,1.74,27.299999999999997,,,,,,
Fix,GPS,36.6351504300,29.0834566900,250.19378662109375,0.0,3.7900925,,1712569948000,0.086023256,,6421143385154,6.0,0,,,
Fix,FLP,36.6351504000,29.0834560000,230.09999084472656,0.45895883,3.929,115.70134,1712569948477,0.086023256,45.0,6421143385154,15.720664,0,,,
Fix,NLP,36.6436413000,29.0821737000,,,2500.0,,1712569945262,,,6417928000000,,0,,,
Status,1712569948000,28,0,1,5,1575420030,35.50,111.0,23.0,1,1,1,30.5
Status,1712569948000,28,1,1,11,1575420030,39.90,42.0,22.0,1,1,1,34.9
Status,1712569948000,28,2,1,12,1575420030,41.60,105.0,44.0,1,1,1,36.6
Status,1712569948000,28,3,1,18,1575420030,40.10,203.0,27.0,1,1,1,35.1
Status,1712569948000,28,4,1,20,1575420030,38.80,74.0,25.0,1,1,1,33.8
Status,1712569948000,28,5,1,25,1575420030,32.60,80.0,75.0,1,1,1,27.6
Status,1712569948000,28,6,1,28,1575420030,37.20,288.0,40.0,1,1,1,32.2
Status,1712569948000,28,7,1,29,1575420030,37.00,306.0,64.0,1,1,1,32.0
Status,1712569948000,28,8,1,31,1575420030,30.70,313.0,21.0,1,1,1,25.7
Status,1712569948000,28,9,3,10,1602000000,32.70,330.0,58.0,0,1,0,27.7
Status,1712569948000,28,10,3,9,1602000000,37.40,139.0,71.0,1,1,0,32.4
Status,1712569948000,28,11,3,16,1602000000,30.10,143.0,14.0,1,1,1,25.1
Status,1712569948000,28,12,3,19,1602000000,29.70,28.0,37.0,1,1,0,24.7
Status,1712569948000,28,13,3,20,1602000000,0.00,247.0,68.0,0,1,0,0.0
Status,1712569948000,28,14,5,2,1561097980,32.80,112.0,18.0,1,1,0,27.8
Status,1712569948000,28,15,5,5,1561097980,44.10,136.0,35.0,1,1,0,39.1
Status,1712569948000,28,16,5,8,1561097980,39.70,66.0,35.0,1,1,0,34.7
Status,1712569948000,28,17,5,10,1561097980,28.00,85.0,14.0,1,1,0,23.0
Status,1712569948000,28,18,5,13,1561097980,40.90,82.0,40.0,1,1,1,35.9
Status,1712569948000,28,19,5,27,1561097980,42.80,37.0,59.0,0,1,0,37.8
Status,1712569948000,28,20,5,30,1561097980,35.90,254.0,61.0,1,1,1,30.9
Status,1712569948000,28,21,6,2,1575420030,37.40,312.0,37.0,1,1,0,32.4
Status,1712569948000,28,22,6,10,1575420030,43.50,46.0,43.0,1,1,0,38.5
Status,1712569948000,28,23,6,11,1575420030,32.10,75.0,68.0,1,1,1,27.1
Status,1712569948000,28,24,6,12,1575420030,26.90,39.0,19.0,1,1,0,21.9
Status,1712569948000,28,25,6,24,1575420030,41.90,113.0,30.0,1,1,0,36.9
Status,1712569948000,28,26,6,25,1575420030,39.30,46.0,77.0,1,1,0,34.3
Status,1712569948000,28,27,6,36,1575420030,38.30,194.0,47.0,1,1,0,33.3
Raw,1712569948437,7360801000000,18,,-1396597805636075004,-0.03374433517456055,49.87163265468553,-16.699737728051034,12.604724836648916,165,10,0.0,49359,46348370713425,27,29.7,-411.06353759765625,0.8814999461174011,16,0.0,0.0,1598062460,,,,0,,3,0.91,26.7,,,,,,
Raw,1712569948437,7360801000000,18,,-1396597805636075004,-0.03374433517456055,49.87163265468553,-16.699737728051034,12.604724836648916,165,9,0.0,49359,46348372657862,16,34.4,229.6257781982422,0.24469999969005585,16,0.0,0.0,1600875010,,,,0,,3,0.91,31.4,,,,,,
Raw,1712569948437,7360801000000,18,,-1396597805636075004,-0.03374433517456055,49.87163265468553,-16.699737728051034,12.604724836648916,165,16,0.0,49359,46348360051786,35,27.1,735.5076904296875,0.9864999651908875,16,0.0,0.0,1601437440,,,,0,,3,0.91,24.1,,,,,,
Raw,1712569948437,7360801000000,18,,-1396597805636075004,-0.03374433517456055,49.87163265468553,-16.699737728051034,12.604724836648916,165,19,0.0,49359,46348366529697,40,26.7,612.301513671875,1.0555000305175781,16,0.0,0.0,1603687550,,,,0,,3,0.91,23.7,,,,,,
Raw,1712569948437,7360801000000,18,,-1396597805636075004,-0.03374433517456055,49.87163265468553,-16.699737728051034,12.604724836648916,165,5,0.0,81935,121966359138586,19,32.5,-444.36749267578125,0.06980000436306,16,0.0,0.0,1575420030,,,,0,,1,1.79,29.5,,,,,,
Raw,1712569948437,7360801000000,18,,-1396597805636075004,-0.03374433517456055,49.87163265468553,-16.699737728051034,12.604724836648916,165,11,0.0,81935,121966358222615,13,36.9,578.2346801757812,0.05220000445842743,16,0.0,0.0,1575420030,,,,0,,1,1.79,33.9,,,,,,
Raw,1712569948437,7360801000000,18,,-1396597805636075004,-0.03374433517456055,49.87163265468553,-16.699737728051034,12.604724836648916,165,12,0.0,81935,121966364508323,11,38.6,405.65899658203125,0.02890000119805336,16,0.0,0.0,1575420030,,,,0,,1,1.79,35.6,,,,,,
Raw,1712569948437,7360801000000,18,,-1396597805636075004,-0.03374433517456055,49.87163265468553,-16.699737728051034,12.604724836648916,165,18,0.0,81935,121966359617485,12,37.1,-648.7939453125,0.02240000106394291,16,0.0,0.0,1575420030,,,,0,,1,1.79,34.1,,,,,,
Raw,1712569948437,7360801000000,18,,-1396597805636075004,-0.03374433517456055,49.87163265468553,-16.699737728051034,12.604724836648916,165,20,0.0,81935,121966359824618,14,35.8,-54.60805130004883,0.024300001561641693,16,0.0,0.0,1575420030,,,,0,,1,1.79,32.8,,,,,,
Raw,1712569948437,7360801000000,18,,-1396597805636075004,-0.03374433517456055,49.87163265468553,-16.699737728051034,12.604724836648916,165,25,0.0,81935,121966370131790,27,29.6,110.64625549316406,0.6814999580383301,16,0.0,0.0,1575420030,,,,0,,1,1.79,26.6,,,,,,
Raw,1712569948437,7360801000000,18,,-1396597805636075004,-0.03374433517456055,49.87163265468553,-16.699737728051034,12.604724836648916,165,28,0.0,81935,121966363743987,16,34.2,-148.9476776123047,0.031200002878904343,16,0.0,0.0,1575420030,,,,0,,1,1.79,31.200000000000003,,,,,,
Raw,1712569948437,7360801000000,18,,-1396597805636075004,-0.03374433517456055,49.87163265468553,-16.699737728051034,12.604724836648916,165,29,0.0,81935,121966367589350,16,34.0,-100.0665512084961,0.03720000013709068,16,0.0,0.0,1575420030,,,,0,,1,1.79,31.0,,,,,,
Raw,1712569948437,7360801000000,18,,-1396597805636075004,-0.03374433517456055,49.87163265468553,-16.699737728051034,12.604724836648916,165,5,0.0,16399,121952309308645,11,38.1,-10.274112701416016,5.3292999267578125,16,0.0,0.0,1561097980,,,,0,,5,1.65,32.1,,,,,,
Raw,1712569948437,7360801000000,18,,-1396597805636075004,-0.03374433517456055,49.87163265468553,-16.699737728051034,12.604724836648916,165,8,0.0,16399,121952309843798,17,33.7,-147.62619018554688,0.046800002455711365,16,0.0,0.0,1561097980,,,,0,,5,1.65,27.700000000000003,,,,,,
Raw,1712569948437,7360801000000,18,,-1396597805636075004,-0.03374433517456055,49.87163265468553,-16.699737728051034,12.604724836648916,165,10,0.0,16399,121952304254096,73,22.0,49.9494743347168,1.6424999237060547,16,0.0,0.0,1561097980,,,,0,,5,1.65,16.0,,,,,,
Raw,1712569948437,7360801000000,18,,-1396597805636075004,-0.03374433517456055,49.87163265468553,-16.699737728051034,12.604724836648916,165,13,0.0,16399,121952310865791,16,34.9,-207.88311767578125,0.04170000180602074,16,0.0,0.0,1561097980,,,,0,,5,1.65,28.9,,,,,,
Raw,1712569948437,7360801000000,18,,-1396597805636075004,-0.03374433517456055,49.87163265468553,-16.699737728051034,12.604724836648916,165,27,0.0,16399,121952363216913,13,36.8,302.5729064941406,0.02970000170171261,16,0.0,0.0,1561097980,,,,0,,5,1.65,30.799999999999997,,,,,,
Raw,1712569948437,7360801000000,18,,-1396597805636075004,-0.03374433517456055,49.87163265468553,-16.699737728051034,12.604724836648916,165,30,0.0,16399,121952363350269,27,29.9,-208.41085815429688,0.531000018119812,16,0.0,0.0,1561097980,,,,0,,5,1.65,23.9,,,,,,
Raw,1712569948437,7360801000000,18,,-1396597805636075004,-0.03374433517456055,49.87163265468553,-16.699737728051034,12.604724836648916,165,2,0.0,89103,121966352804920,21,31.4,-397.4495544433594,0.13519999384880066,16,0.0,0.0,1575420030,,,,0,,6,1.81,25.4,,,,,,
Raw,1712569948437,7360801000000,18,,-1396597805636075004,-0.03374433517456055,49.87163265468553,-16.699737728051034,12.604724836648916,165,10,0.0,89103,121966353614465,12,37.5,339.86236572265625,0.049400001764297485,16,0.0,0.0,1575420030,,,,0,,6,1.81,31.5,,,,,,
Raw,1712569948437,7360801000000,18,,-1396597805636075004,-0.03374433517456055,49.87163265468553,-16.699737728051034,12.604724836648916,165,11,0.0,89103,121966361646977,40,26.1,66.9167709350586,0.6919999718666077,16,0.0,0.0,1575420030,,,,0,,6,1.81,20.1,,,,,,
Raw,1712569948437,7360801000000,18,,-1396597805636075004,-0.03374433517456055,49.87163265468553,-16.699737728051034,12.604724836648916,165,24,0.0,89103,121966350200525,14,35.9,368.1091003417969,0.052800003439188004,16,0.0,0.0,1575420030,,,,0,,6,1.81,29.9,,,,,,
Raw,1712569948437,7360801000000,18,,-1396597805636075004,-0.03374433517456055,49.87163265468553,-16.699737728051034,12.604724836648916,165,25,0.0,89103,121966359213905,17,33.3,-23.226545333862305,0.06180000305175781,16,0.0,0.0,1575420030,,,,0,,6,1.81,27.299999999999997,,,,,,
Raw,1712569948437,7360801000000,18,,-1396597805636075004,-0.03374433517456055,49.87163265468553,-16.699737728051034,12.604724836648916,165,36,0.0,89103,121966355113659,19,32.3,-428.036865234375,0.06980000436306,16,0.0,0.0,1575420030,,,,0,,6,1.81,26.299999999999997,,,,,,
Fix,GPS,36.6351489400,29.0834591500,250.3997802734375,0.0,3.7900925,,1712569949000,0.086023256,,6422143115571,6.0,0,,,
Fix,FLP,36.6351489000,29.0834593000,230.09999084472656,0.3889983,3.924,118.02268,1712569949477,0.086023256,45.0,6422143115571,15.730661,0,,,
Status,1712569949000,28,0,1,5,1575420030,36.90,111.0,23.0,1,1,1,31.9
Status,1712569949000,28,1,1,11,1575420030,39.80,42.0,22.0,1,1,1,34.8
Status,1712569949000,28,2,1,12,1575420030,42.10,105.0,44.0,1,1,1,37.1
Status,1712569949000,28,3,1,18,1575420030,38.70,203.0,27.0,1,1,1,33.7
Status,1712569949000,28,4,1,20,1575420030,39.00,74.0,25.0,1,1,1,34.0
Status,1712569949000,28,5,1,25,1575420030,31.60,80.0,75.0,1,1,1,26.6
Status,1712569949000,28,6,1,28,1575420030,37.30,288.0,40.0,1,1,1,32.3
Status,1712569949000,28,7,1,29,1575420030,36.50,306.0,64.0,1,1,1,31.5
Status,1712569949000,28,8,1,31,1575420030,30.70,313.0,21.0,1,1,1,25.7
Status,1712569949000,28,9,3,10,1602000000,33.10,330.0,58.0,0,1,0,28.1
Status,1712569949000,28,10,3,9,1602000000,37.40,139.0,71.0,1,1,0,32.4
Status,1712569949000,28,11,3,16,1602000000,29.80,143.0,14.0,1,1,1,24.8
Status,1712569949000,28,12,3,19,1602000000,28.60,28.0,37.0,1,1,0,23.6
Status,1712569949000,28,13,3,20,1602000000,0.00,247.0,68.0,0,1,0,0.0
Status,1712569949000,28,14,5,2,1561097980,33.50,112.0,18.0,1,1,0,28.5
Status,1712569949000,28,15,5,5,1561097980,43.10,136.0,35.0,1,1,0,38.1
Status,1712569949000,28,16,5,8,1561097980,39.70,66.0,35.0,1,1,0,34.7
Status,1712569949000,28,17,5,10,1561097980,28.00,85.0,14.0,1,1,0,23.0
Status,1712569949000,28,18,5,13,1561097980,40.20,82.0,40.0,1,1,1,35.2
Status,1712569949000,28,19,5,27,1561097980,42.50,37.0,59.0,0,1,0,37.5
Status,1712569949000,28,20,5,30,1561097980,37.20,254.0,61.0,1,1,1,32.2
Status,1712569949000,28,21,6,2,1575420030,38.50,312.0,37.0,1,1,0,33.5
Status,1712569949000,28,22,6,10,1575420030,43.50,46.0,43.0,1,1,0,38.5
Status,1712569949000,28,23,6,11,1575420030,30.60,75.0,68.0,1,1,1,25.6
Status,1712569949000,28,24,6,12,1575420030,26.90,39.0,19.0,1,1,0,21.9
Status,1712569949000,28,25,6,24,1575420030,41.30,113.0,30.0,1,1,0,36.3
Status,1712569949000,28,26,6,25,1575420030,40.20,46.0,77.0,1,1,0,35.2
Status,1712569949000,28,27,6,36,1575420030,39.60,194.0,47.0,1,1,0,34.6
Raw,1712569949437,7361801000000,18,,-1396597805636075010,-0.7467174530029297,47.918190830387175,-13.707125961150062,12.613150020003603,165,10,0.0,49359,46349370714887,24,30.1,-408.861083984375,0.5967999696731567,16,0.0,0.0,1598062460,,,,0,,3,0.92,27.1,,,,,,
Raw,1712569949437,7361801000000,18,,-1396597805636075010,-0.7467174530029297,47.918190830387175,-13.707125961150062,12.613150020003603,165,9,0.0,49359,46349372657097,16,34.4,232.09844970703125,0.24469999969005585,16,0.0,0.0,1600875010,,,,0,,3,0.92,31.4,,,,,,
Raw,1712569949437,7361801000000,18,,-1396597805636075010,-0.7467174530029297,47.918190830387175,-13.707125961150062,12.613150020003603,165,16,0.0,49359,46349360049580,40,26.8,736.90234375,1.0464999675750732,16,0.0,0.0,1601437440,,,,0,,3,0.92,23.8,,,,,,
Raw,1712569949437,7361801000000,18,,-1396597805636075010,-0.7467174530029297,47.918190830387175,-13.707125961150062,12.613150020003603,165,19,0.0,49359,46349366527723,46,25.6,615.9281005859375,1.1255000829696655,16,0.0,0.0,1603687550,,,,0,,3,0.92,22.6,,,,,,
Raw,1712569949437,7361801000000,18,,-1396597805636075010,-0.7467174530029297,47.918190830387175,-13.707125961150062,12.613150020003603,165,5,0.0,81935,121967359140033,17,33.9,-441.9093933105469,0.06180000305175781,16,0.0,0.0,1575420030,,,,0,,1,1.85,30.9,,,,,,
Raw,1712569949437,7361801000000,18,,-1396597805636075010,-0.7467174530029297,47.918190830387175,-13.707125961150062,12.613150020003603,165,11,0.0,81935,121967358220671,13,36.8,580.7012329101562,0.05220000445842743,16,0.0,0.0,1575420030,,,,0,,1,1.85,33.8,,,,,,
Raw,1712569949437,7361801000000,18,,-1396597805636075010,-0.7467174530029297,47.918190830387175,-13.707125961150062,12.613150020003603,165,12,0.0,81935,121967364506975,10,39.1,408.14520263671875,0.02810000069439411,16,0.0,0.0,1575420030,,,,0,,1,1.85,36.1,,,,,,
Raw,1712569949437,7361801000000,18,,-1396597805636075010,-0.7467174530029297,47.918190830387175,-13.707125961150062,12.613150020003603,165,18,0.0,81935,121967359619632,14,35.7,-646.3428344726562,0.024300001561641693,16,0.0,0.0,1575420030,,,,0,,1,1.85,32.7,,,,,,
Raw,1712569949437,7361801000000,18,,-1396597805636075010,-0.7467174530029297,47.918190830387175,-13.707125961150062,12.613150020003603,165,20,0.0,81935,121967359824799,13,36.0,-52.16089630126953,0.02370000071823597,16,0.0,0.0,1575420030,,,,0,,1,1.85,33.0,,,,,,
Raw,1712569949437,7361801000000,18,,-1396597805636075010,-0.7467174530029297,47.918190830387175,-13.707125961150062,12.613150020003603,165,25,0.0,81935,121967370131414,31,28.6,113.14862060546875,0.7414999604225159,16,0.0,0.0,1575420030,,,,0,,1,1.85,25.6,,,,,,
Raw,1712569949437,7361801000000,18,,-1396597805636075010,-0.7467174530029297,47.918190830387175,-13.707125961150062,12.613150020003603,165,28,0.0,81935,121967363744442,16,34.3,-146.45660400390625,0.031200002878904343,16,0.0,0.0,1575420030,,,,0,,1,1.85,31.299999999999997,,,,,,
Raw,1712569949437,7361801000000,18,,-1396597805636075010,-0.7467174530029297,47.918190830387175,-13.707125961150062,12.613150020003603,165,29,0.0,81935,121967367589632,17,33.5,-97.6651382446289,0.043800000101327896,16,0.0,0.0,1575420030,,,,0,,1,1.85,30.5,,,,,,
Raw,1712569949437,7361801000000,18,,-1396597805636075010,-0.7467174530029297,47.918190830387175,-13.707125961150062,12.613150020003603,165,2,0.0,16399,121953305459860,91,27.5,-11.12868881225586,16.67889976501465,16,0.0,0.0,1561097980,,,,0,,5,1.65,21.5,,,,,,
Raw,1712569949437,7361801000000,18,,-1396597805636075010,-0.7467174530029297,47.918190830387175,-13.707125961150062,12.613150020003603,165,5,0.0,16399,121953309308681,12,37.1,-7.710385799407959,5.520500183105469,16,0.0,0.0,1561097980,,,,0,,5,1.65,31.1,,,,,,
Raw,1712569949437,7361801000000,18,,-1396597805636075010,-0.7467174530029297,47.918190830387175,-13.707125961150062,12.613150020003603,165,8,0.0,16399,121953309844289,17,33.7,-145.08297729492188,0.046800002455711365,16,0.0,0.0,1561097980,,,,0,,5,1.65,27.700000000000003,,,,,,
Raw,1712569949437,7361801000000,18,,-1396597805636075010,-0.7467174530029297,47.918190830387175,-13.707125961150062,12.613150020003603,165,13,0.0,16399,121953310866478,16,34.2,-205.48304748535156,0.04170000180602074,16,0.0,0.0,1561097980,,,,0,,5,1.65,28.200000000000003,,,,,,
Raw,1712569949437,7361801000000,18,,-1396597805636075010,-0.7467174530029297,47.918190830387175,-13.707125961150062,12.613150020003603,165,27,0.0,16399,121953363215913,13,36.5,305.0638122558594,0.02970000170171261,16,0.0,0.0,1561097980,,,,0,,5,1.65,30.5,,,,,,
Raw,1712569949437,7361801000000,18,,-1396597805636075010,-0.7467174530029297,47.918190830387175,-13.707125961150062,12.613150020003603,165,30,0.0,16399,121953363350973,21,31.2,-205.62649536132812,0.11570000648498535,16,0.0,0.0,1561097980,,,,0,,5,1.65,25.2,,,,,,
Raw,1712569949437,7361801000000,18,,-1396597805636075010,-0.7467174530029297,47.918190830387175,-13.707125961150062,12.613150020003603,165,2,0.0,89103,121967352806251,19,32.5,-395.0101318359375,0.06530000269412994,16,0.0,0.0,1575420030,,,,0,,6,1.81,26.5,,,,,,
Raw,1712569949437,7361801000000,18,,-1396597805636075010,-0.7467174530029297,47.918190830387175,-13.707125961150062,12.613150020003603,165,10,0.0,89103,121967353613327,12,37.5,342.3533020019531,0.049400001764297485,16,0.0,0.0,1575420030,,,,0,,6,1.81,31.5,,,,,,
Raw,1712569949437,7361801000000,18,,-1396597805636075010,-0.7467174530029297,47.918190830387175,-13.707125961150062,12.613150020003603,165,11,0.0,89103,121967361646742,53,24.6,70.19933319091797,0.8119999766349792,16,0.0,0.0,1575420030,,,,0,,6,1.81,18.6,,,,,,
Raw,1712569949437,7361801000000,18,,-1396597805636075010,-0.7467174530029297,47.918190830387175,-13.707125961150062,12.613150020003603,165,24,0.0,89103,121967350199293,14,35.3,370.5826416015625,0.052800003439188004,16,0.0,0.0,1575420030,,,,0,,6,1.81,29.299999999999997,,,,,,
Raw,1712569949437,7361801000000,18,,-1396597805636075010,-0.7467174530029297,47.918190830387175,-13.707125961150062,12.613150020003603,165,25,0.0,89103,121967359213983,16,34.2,-20.711078643798828,0.0552000030875206,16,0.0,0.0,1575420030,,,,0,,6,1.81,28.200000000000003,,,,,,
Raw,1712569949437,7361801000000,18,,-1396597805636075010,-0.7467174530029297,47.918190830387175,-13.707125961150062,12.613150020003603,165,36,0.0,89103,121967355115080,17,33.6,-425.540771484375,0.06180000305175781,16,0.0,0.0,1575420030,,,,0,,6,1.81,27.6,,,,,,
Fix,GPS,36.6351462300,29.0834644300,250.4556884765625,0.0,3.7900925,,1712569950000,0.086023256,,6423137157237,6.0,0,,,
Fix,FLP,36.6351463000,29.0834643000,230.09999084472656,0.47770187,3.9,121.36488,1712569950471,0.086023256,45.0,6423137157237,15.740602,0,,,
Status,1712569950000,28,0,1,5,1575420030,36.90,111.0,23.0,1,1,1,31.9
Status,1712569950000,28,1,1,11,1575420030,38.50,42.0,22.0,1,1,1,33.5
Status,1712569950000,28,2,1,12,1575420030,41.80,105.0,44.0,1,1,1,36.8
Status,1712569950000,28,3,1,18,1575420030,38.90,203.0,27.0,1,1,1,33.9
Status,1712569950000,28,4,1,20,1575420030,37.60,74.0,25.0,1,1,1,32.6
Status,1712569950000,28,5,1,25,1575420030,34.30,80.0,75.0,1,1,1,29.3
Status,1712569950000,28,6,1,28,1575420030,38.00,288.0,40.0,1,1,1,33.0
Status,1712569950000,28,7,1,29,1575420030,37.30,306.0,64.0,1,1,1,32.3
Status,1712569950000,28,8,1,31,1575420030,30.70,313.0,21.0,1,1,1,25.7
Status,1712569950000,28,9,3,10,1602000000,33.10,330.0,58.0,0,1,0,28.1
Status,1712569950000,28,10,3,9,1602000000,36.50,139.0,71.0,1,1,0,31.5
Status,1712569950000,28,11,3,16,1602000000,29.50,143.0,14.0,1,1,1,24.5
Status,1712569950000,28,12,3,19,1602000000,28.90,28.0,37.0,1,1,0,23.9
Status,1712569950000,28,13,3,20,1602000000,0.00,247.0,68.0,0,1,0,0.0
Status,1712569950000,28,14,5,2,1561097980,33.50,112.0,18.0,1,1,0,28.5
Status,1712569950000,28,15,5,5,1561097980,42.40,136.0,35.0,1,1,0,37.4
Status,1712569950000,28,16,5,8,1561097980,38.80,66.0,35.0,1,1,0,33.8
Status,1712569950000,28,17,5,10,1561097980,28.00,85.0,14.0,1,1,0,23.0
Status,1712569950000,28,18,5,13,1561097980,38.80,82.0,40.0,1,1,1,33.8
Status,1712569950000,28,19,5,27,1561097980,42.00,37.0,59.0,0,1,0,37.0
Status,1712569950000,28,20,5,30,1561097980,37.40,254.0,61.0,1,1,1,32.4
Status,1712569950000,28,21,6,2,1575420030,38.50,312.0,37.0,1,1,0,33.5
Status,1712569950000,28,22,6,10,1575420030,42.90,46.0,43.0,1,1,0,37.9
Status,1712569950000,28,23,6,11,1575420030,33.10,75.0,68.0,1,1,1,28.1
Status,1712569950000,28,24,6,12,1575420030,26.90,39.0,19.0,1,1,0,21.9
Status,1712569950000,28,25,6,24,1575420030,40.40,113.0,30.0,1,1,0,35.4
Status,1712569950000,28,26,6,25,1575420030,39.70,46.0,77.0,1,1,0,34.7
Status,1712569950000,28,27,6,36,1575420030,40.00,194.0,47.0,1,1,0,35.0
Fix,GPS,36.6351459400,29.0834674600,250.7750244140625,0.0,3.7900925,,1712569951000,0.64350605,,6424138105101,6.0,0,,,
Raw,1712569950437,7362801000000,18,,-1396597805636075007,-0.8558921813964844,43.376556277507916,-5.805783590617799,10.628119879679247,165,10,0.0,49359,46350370716178,24,30.1,-415.6690673828125,0.8314999938011169,16,0.0,0.0,1598062460,,,,0,,3,0.85,27.1,,,,,,
Raw,1712569950437,7362801000000,18,,-1396597805636075007,-0.8558921813964844,43.376556277507916,-5.805783590617799,10.628119879679247,165,9,0.0,49359,46350372656368,17,33.5,225.6030731201172,0.25130000710487366,16,0.0,0.0,1600875010,,,,0,,3,0.85,30.5,,,,,,
Raw,1712569950437,7362801000000,18,,-1396597805636075007,-0.8558921813964844,43.376556277507916,-5.805783590617799,10.628119879679247,165,16,0.0,49359,46350360047102,40,26.5,730.1724243164062,1.0464999675750732,16,0.0,0.0,1601437440,,,,0,,3,0.85,23.5,,,,,,
Raw,1712569950437,7362801000000,18,,-1396597805636075007,-0.8558921813964844,43.376556277507916,-5.805783590617799,10.628119879679247,165,19,0.0,49359,46350366525684,46,25.9,608.8898315429688,1.1255000829696655,16,0.0,0.0,1603687550,,,,0,,3,0.85,22.9,,,,,,
Raw,1712569950437,7362801000000,18,,-1396597805636075007,-0.8558921813964844,43.376556277507916,-5.805783590617799,10.628119879679247,165,5,0.0,81935,121968359141532,17,33.9,-448.9979248046875,0.5249999761581421,16,0.0,0.0,1575420030,,,,0,,1,1.68,30.9,,,,,,
Raw,1712569950437,7362801000000,18,,-1396597805636075007,-0.8558921813964844,43.376556277507916,-5.805783590617799,10.628119879679247,165,11,0.0,81935,121968358218744,14,35.5,574.1573486328125,0.052800003439188004,16,0.0,0.0,1575420030,,,,0,,1,1.68,32.5,,,,,,
Raw,1712569950437,7362801000000,18,,-1396597805636075007,-0.8558921813964844,43.376556277507916,-5.805783590617799,10.628119879679247,165,12,0.0,81935,121968364505632,11,38.8,401.4688720703125,0.02890000119805336,16,0.0,0.0,1575420030,,,,0,,1,1.68,35.8,,,,,,
Raw,1712569950437,7362801000000,18,,-1396597805636075007,-0.8558921813964844,43.376556277507916,-5.805783590617799,10.628119879679247,165,18,0.0,81935,121968359621778,14,35.9,-653.0009155273438,0.024300001561641693,16,0.0,0.0,1575420030,,,,0,,1,1.68,32.9,,,,,,
Raw,1712569950437,7362801000000,18,,-1396597805636075007,-0.8558921813964844,43.376556277507916,-5.805783590617799,10.628119879679247,165,20,0.0,81935,121968359825013,16,34.6,-58.735599517822266,0.025200001895427704,16,0.0,0.0,1575420030,,,,0,,1,1.68,31.6,,,,,,
Raw,1712569950437,7362801000000,18,,-1396597805636075007,-0.8558921813964844,43.376556277507916,-5.805783590617799,10.628119879679247,165,25,0.0,81935,121968370130985,21,31.3,105.95551300048828,0.5914999842643738,16,0.0,0.0,1575420030,,,,0,,1,1.68,28.3,,,,,,
Raw,1712569950437,7362801000000,18,,-1396597805636075007,-0.8558921813964844,43.376556277507916,-5.805783590617799,10.628119879679247,165,28,0.0,81935,121968363745004,14,35.0,-153.0320281982422,0.030300002545118332,16,0.0,0.0,1575420030,,,,0,,1,1.68,32.0,,,,,,
Raw,1712569950437,7362801000000,18,,-1396597805636075007,-0.8558921813964844,43.376556277507916,-5.805783590617799,10.628119879679247,165,29,0.0,81935,121968367589993,16,34.3,-104.27742004394531,0.03720000013709068,16,0.0,0.0,1575420030,,,,0,,1,1.68,31.299999999999997,,,,,,
Raw,1712569950437,7362801000000,18,,-1396597805636075007,-0.8558921813964844,43.376556277507916,-5.805783590617799,10.628119879679247,165,5,0.0,16399,121954309308714,14,36.4,-11.061474800109863,5.958799839019775,16,0.0,0.0,1561097980,,,,0,,5,1.52,30.4,,,,,,
Raw,1712569950437,7362801000000,18,,-1396597805636075007,-0.8558921813964844,43.376556277507916,-5.805783590617799,10.628119879679247,165,8,0.0,16399,121954309844783,19,32.8,-151.8425750732422,0.05480000376701355,16,0.0,0.0,1561097980,,,,0,,5,1.52,26.799999999999997,,,,,,
Raw,1712569950437,7362801000000,18,,-1396597805636075007,-0.8558921813964844,43.376556277507916,-5.805783590617799,10.628119879679247,165,13,0.0,16399,121954310867166,19,32.8,-212.12603759765625,0.056299999356269836,16,0.0,0.0,1561097980,,,,0,,5,1.52,26.799999999999997,,,,,,
Raw,1712569950437,7362801000000,18,,-1396597805636075007,-0.8558921813964844,43.376556277507916,-5.805783590617799,10.628119879679247,165,27,0.0,16399,121954363214919,13,36.0,298.3900451660156,0.02970000170171261,16,0.0,0.0,1561097980,,,,0,,5,1.52,30.0,,,,,,
Raw,1712569950437,7362801000000,18,,-1396597805636075007,-0.8558921813964844,43.376556277507916,-5.805783590617799,10.628119879679247,165,30,0.0,16399,121954363351661,21,31.4,-212.9237823486328,0.460999995470047,16,0.0,0.0,1561097980,,,,0,,5,1.52,25.4,,,,,,
Raw,1712569950437,7362801000000,18,,-1396597805636075007,-0.8558921813964844,43.376556277507916,-5.805783590617799,10.628119879679247,165,2,0.0,89103,121968352807585,19,32.5,-401.3604431152344,0.06530000269412994,16,0.0,0.0,1575420030,,,,0,,6,1.67,26.5,,,,,,
Raw,1712569950437,7362801000000,18,,-1396597805636075007,-0.8558921813964844,43.376556277507916,-5.805783590617799,10.628119879679247,165,10,0.0,89103,121968353612197,13,36.9,336.07781982421875,0.050700001418590546,16,0.0,0.0,1575420030,,,,0,,6,1.67,30.9,,,,,,
Raw,1712569950437,7362801000000,18,,-1396597805636075007,-0.8558921813964844,43.376556277507916,-5.805783590617799,10.628119879679247,165,11,0.0,89103,121968361646505,35,27.1,62.85400390625,0.6420000195503235,16,0.0,0.0,1575420030,,,,0,,6,1.67,21.1,,,,,,
Raw,1712569950437,7362801000000,18,,-1396597805636075007,-0.8558921813964844,43.376556277507916,-5.805783590617799,10.628119879679247,165,24,0.0,89103,121968350198064,16,34.4,364.2778015136719,0.053700003772974014,16,0.0,0.0,1575420030,,,,0,,6,1.67,28.4,,,,,,
Raw,1712569950437,7362801000000,18,,-1396597805636075007,-0.8558921813964844,43.376556277507916,-5.805783590617799,10.628119879679247,165,25,0.0,89103,121968359214059,17,33.7,-26.991378784179688,0.06180000305175781,16,0.0,0.0,1575420030,,,,0,,6,1.67,27.700000000000003,,,,,,
Raw,1712569950437,7362801000000,18,,-1396597805636075007,-0.8558921813964844,43.376556277507916,-5.805783590617799,10.628119879679247,165,36,0.0,89103,121968355116512,16,34.0,-431.8230285644531,0.0552000030875206,16,0.0,0.0,1575420030,,,,0,,6,1.67,28.0,,,,,,
Fix,FLP,36.6351458000,29.0834676000,230.09999084472656,0.36208555,3.9,111.22645,1712569951472,0.64350605,45.0,6424138105101,15.750611,0,,,
Status,1712569951000,28,0,1,5,1575420030,38.70,111.0,23.0,1,1,1,33.7
Status,1712569951000,28,1,1,11,1575420030,41.20,42.0,22.0,1,1,1,36.2
Status,1712569951000,28,2,1,12,1575420030,42.50,105.0,44.0,1,1,1,37.5
Status,1712569951000,28,3,1,18,1575420030,39.00,203.0,27.0,1,1,1,34.0
Status,1712569951000,28,4,1,20,1575420030,37.30,74.0,25.0,1,1,1,32.3
Status,1712569951000,28,5,1,25,1575420030,37.30,80.0,75.0,1,1,1,32.3
Status,1712569951000,28,6,1,28,1575420030,38.20,288.0,40.0,1,1,1,33.2
Status,1712569951000,28,7,1,29,1575420030,35.60,306.0,64.0,1,1,1,30.6
Status,1712569951000,28,8,1,31,1575420030,30.70,313.0,21.0,1,1,1,25.7
Status,1712569951000,28,9,3,10,1602000000,33.90,330.0,58.0,0,1,0,28.9
Status,1712569951000,28,10,3,9,1602000000,32.40,139.0,71.0,1,1,0,27.4
Status,1712569951000,28,11,3,16,1602000000,31.20,143.0,14.0,1,1,1,26.2
Status,1712569951000,28,12,3,19,1602000000,26.90,28.0,37.0,1,1,0,21.9
Status,1712569951000,28,13,3,20,1602000000,0.00,247.0,68.0,0,1,0,0.0
Status,1712569951000,28,14,5,2,1561097980,33.50,112.0,18.0,1,1,0,28.5
Status,1712569951000,28,15,5,5,1561097980,45.40,136.0,35.0,1,1,0,40.4
Status,1712569951000,28,16,5,8,1561097980,41.30,66.0,35.0,1,1,0,36.3
Status,1712569951000,28,17,5,10,1561097980,27.50,85.0,14.0,1,1,0,22.5
Status,1712569951000,28,18,5,13,1561097980,40.80,82.0,40.0,1,1,1,35.8
Status,1712569951000,28,19,5,27,1561097980,46.20,37.0,59.0,0,1,0,41.2
Status,1712569951000,28,20,5,30,1561097980,36.90,254.0,61.0,1,1,1,31.9
Status,1712569951000,28,21,6,2,1575420030,36.40,312.0,37.0,1,1,0,31.4
Status,1712569951000,28,22,6,10,1575420030,44.00,46.0,43.0,1,1,0,39.0
Status,1712569951000,28,23,6,11,1575420030,34.20,75.0,68.0,1,1,1,29.2
Status,1712569951000,28,24,6,12,1575420030,26.90,39.0,19.0,0,1,0,21.9
Status,1712569951000,28,25,6,24,1575420030,40.20,113.0,30.0,1,1,0,35.2
Status,1712569951000,28,26,6,25,1575420030,41.20,46.0,77.0,1,1,0,36.2
Status,1712569951000,28,27,6,36,1575420030,39.60,194.0,47.0,1,1,0,34.6
Raw,1712569951437,7363801000000,18,,-1396597805636075013,-0.6598944664001465,59.45809971308336,-5.805783590617799,19.417183038399113,166,10,0.0,49359,46351370717613,24,30.9,-414.9530029296875,0.5967999696731567,16,0.0,0.0,1598062460,,,,0,,3,0.91,27.9,,,,,,
Raw,1712569951437,7363801000000,18,,-1396597805636075013,-0.6598944664001465,59.45809971308336,-5.805783590617799,19.417183038399113,166,9,0.0,49359,46351372655579,27,29.4,226.20086669921875,0.8844999670982361,16,0.0,0.0,1600875010,,,,0,,3,0.91,26.4,,,,,,
Raw,1712569951437,7363801000000,18,,-1396597805636075013,-0.6598944664001465,59.45809971308336,-5.805783590617799,19.417183038399113,166,16,0.0,49359,46351360044717,31,28.2,733.1957397460938,0.9264999628067017,16,0.0,0.0,1601437440,,,,0,,3,0.91,25.2,,,,,,
Raw,1712569951437,7363801000000,18,,-1396597805636075013,-0.6598944664001465,59.45809971308336,-5.805783590617799,19.417183038399113,166,19,0.0,49359,46351366523603,61,23.9,609.553466796875,1.2855000495910645,16,0.0,0.0,1603687550,,,,0,,3,0.91,20.9,,,,,,
Raw,1712569951437,7363801000000,18,,-1396597805636075013,-0.6598944664001465,59.45809971308336,-5.805783590617799,19.417183038399113,166,5,0.0,81935,121969359143028,14,35.7,-447.4461975097656,0.05430000275373459,16,0.0,0.0,1575420030,,,,0,,1,1.74,32.7,,,,,,
Raw,1712569951437,7363801000000,18,,-1396597805636075013,-0.6598944664001465,59.45809971308336,-5.805783590617799,19.417183038399113,166,11,0.0,81935,121969358216854,11,38.2,575.2640991210938,0.04990000277757645,16,0.0,0.0,1575420030,,,,0,,1,1.74,35.2,,,,,,
Raw,1712569951437,7363801000000,18,,-1396597805636075013,-0.6598944664001465,59.45809971308336,-5.805783590617799,19.417183038399113,166,12,0.0,81935,121969364504280,10,39.5,402.7858581542969,0.02810000069439411,16,0.0,0.0,1575420030,,,,0,,1,1.74,36.5,,,,,,
Raw,1712569951437,7363801000000,18,,-1396597805636075013,-0.6598944664001465,59.45809971308336,-5.805783590617799,19.417183038399113,166,18,0.0,81935,121969359624000,13,36.0,-651.6553955078125,0.02370000071823597,16,0.0,0.0,1575420030,,,,0,,1,1.74,33.0,,,,,,
Raw,1712569951437,7363801000000,18,,-1396597805636075013,-0.6598944664001465,59.45809971308336,-5.805783590617799,19.417183038399113,166,20,0.0,81935,121969359825185,16,34.3,-57.43050003051758,0.025200001895427704,16,0.0,0.0,1575420030,,,,0,,1,1.74,31.299999999999997,,,,,,
Raw,1712569951437,7363801000000,18,,-1396597805636075013,-0.6598944664001465,59.45809971308336,-5.805783590617799,19.417183038399113,166,25,0.0,81935,121969370130656,16,34.3,108.15341186523438,0.4715000092983246,16,0.0,0.0,1575420030,,,,0,,1,1.74,31.299999999999997,,,,,,
Raw,1712569951437,7363801000000,18,,-1396597805636075013,-0.6598944664001465,59.45809971308336,-5.805783590617799,19.417183038399113,166,28,0.0,81935,121969363745512,14,35.2,-151.56658935546875,0.030300002545118332,16,0.0,0.0,1575420030,,,,0,,1,1.74,32.2,,,,,,
Raw,1712569951437,7363801000000,18,,-1396597805636075013,-0.6598944664001465,59.45809971308336,-5.805783590617799,19.417183038399113,166,29,0.0,81935,121969367590372,19,32.6,-103.97500610351562,0.05180000141263008,16,0.0,0.0,1575420030,,,,0,,1,1.74,29.6,,,,,,
Raw,1712569951437,7363801000000,18,,-1396597805636075013,-0.6598944664001465,59.45809971308336,-5.805783590617799,19.417183038399113,166,31,0.0,81935,121969358586703,61,27.7,-435.7820129394531,3.813500165939331,16,0.0,0.0,1575420030,,,,0,,1,1.74,24.7,,,,,,
Raw,1712569951437,7363801000000,18,,-1396597805636075013,-0.6598944664001465,59.45809971308336,-5.805783590617799,19.417183038399113,166,5,0.0,16399,121955309308776,10,39.4,-10.984659194946289,5.1381001472473145,16,0.0,0.0,1561097980,,,,0,,5,1.58,33.4,,,,,,
Raw,1712569951437,7363801000000,18,,-1396597805636075013,-0.6598944664001465,59.45809971308336,-5.805783590617799,19.417183038399113,166,8,0.0,16399,121955309845292,14,35.3,-150.60552978515625,0.03930000215768814,16,0.0,0.0,1561097980,,,,0,,5,1.58,29.299999999999997,,,,,,
Raw,1712569951437,7363801000000,18,,-1396597805636075013,-0.6598944664001465,59.45809971308336,-5.805783590617799,19.417183038399113,166,10,0.0,16399,121955304253642,89,21.5,47.9810676574707,2.502500057220459,16,0.0,0.0,1561097980,,,,0,,5,1.58,15.5,,,,,,
Raw,1712569951437,7363801000000,18,,-1396597805636075013,-0.6598944664001465,59.45809971308336,-5.805783590617799,19.417183038399113,166,13,0.0,16399,121955310867863,16,34.8,-213.2330780029297,0.04170000180602074,16,0.0,0.0,1561097980,,,,0,,5,1.58,28.799999999999997,,,,,,
Raw,1712569951437,7363801000000,18,,-1396597805636075013,-0.6598944664001465,59.45809971308336,-5.805783590617799,19.417183038399113,166,27,0.0,16399,121955363213930,9,40.2,299.78155517578125,0.026100002229213715,16,0.0,0.0,1561097980,,,,0,,5,1.58,34.2,,,,,,
Raw,1712569951437,7363801000000,18,,-1396597805636075013,-0.6598944664001465,59.45809971308336,-5.805783590617799,19.417183038399113,166,30,0.0,16399,121955363352415,24,30.9,-210.03359985351562,0.5009999871253967,16,0.0,0.0,1561097980,,,,0,,5,1.58,24.9,,,,,,
Raw,1712569951437,7363801000000,18,,-1396597805636075013,-0.6598944664001465,59.45809971308336,-5.805783590617799,19.417183038399113,166,2,0.0,89103,121969352808949,24,30.4,-400.8523254394531,0.4057999849319458,16,0.0,0.0,1575420030,,,,0,,6,1.67,24.4,,,,,,
Raw,1712569951437,7363801000000,18,,-1396597805636075013,-0.6598944664001465,59.45809971308336,-5.805783590617799,19.417183038399113,166,10,0.0,89103,121969353611057,11,38.0,336.3018798828125,0.04840000346302986,16,0.0,0.0,1575420030,,,,0,,6,1.67,32.0,,,,,,
Raw,1712569951437,7363801000000,18,,-1396597805636075013,-0.6598944664001465,59.45809971308336,-5.805783590617799,19.417183038399113,166,11,0.0,89103,121969361646287,31,28.2,63.358280181884766,0.6019999980926514,16,0.0,0.0,1575420030,,,,0,,6,1.67,22.2,,,,,,
Raw,1712569951437,7363801000000,18,,-1396597805636075013,-0.6598944664001465,59.45809971308336,-5.805783590617799,19.417183038399113,166,24,0.0,89103,121969350196864,16,34.2,364.4249572753906,0.053700003772974014,16,0.0,0.0,1575420030,,,,0,,6,1.67,28.200000000000003,,,,,,
Raw,1712569951437,7363801000000,18,,-1396597805636075013,-0.6598944664001465,59.45809971308336,-5.805783590617799,19.417183038399113,166,25,0.0,89103,121969359214145,14,35.2,-26.701692581176758,0.05430000275373459,16,0.0,0.0,1575420030,,,,0,,6,1.67,29.200000000000003,,,,,,
